"stop_id","stop_code","stop_name","stop_desc","stop_lat","stop_lon","location_type","parent_station","wheelchair_boarding","platform_code"
"de:02000:11001::100001","","HBF/Mönckebergstraße",,"53.551551000000","10.004332000000",0,,0,""
"de:02000:10002:4:100009","","Hauptbahnhof/ZOB",,"53.552247000000","10.011292000000",0,,0,""
"de:02000:10005::100012","","Borgfelder Straße",,"53.554753000000","10.034689000000",0,,0,""
"de:02000:10010::100018","","Hübbesweg",,"53.554607000000","10.061137000000",0,,0,""
"de:02000:10006:2:100021","","U Burgstraße",,"53.555642000000","10.041440000000",0,,1,"D"
"de:02000:10005::100024","","Borgfelder Straße",,"53.554699000000","10.033117000000",0,,0,""
"de:02000:10003::100025","","U S Berliner Tor (Beim Strohhause)",,"53.553517000000","10.023235000000",0,,0,""
"de:02000:10002:3:100028","","Hauptbahnhof/ZOB",,"53.552336000000","10.010418000000",0,,0,""
"de:02000:10023::100034","","Spaldingstraße",,"53.547154000000","10.010801000000",0,,0,""
"de:02000:10022::100035","","Lippeltstraße",,"53.545503000000","10.015740000000",0,,0,""
"de:02000:10021::100036","","Nagelsweg",,"53.543076000000","10.022908000000",0,,0,""
"de:02000:10021::100047","","Nagelsweg",,"53.543985000000","10.020999000000",0,,0,""
"de:02000:10022::100048","","Lippeltstraße",,"53.545716000000","10.016047000000",0,,0,""
"de:02000:10023::100049","","Spaldingstraße",,"53.547793000000","10.012807000000",0,,0,""
"de:02000:10024::100050","","U Steinstraße (Deichtorplatz)",,"53.548953000000","10.006444000000",0,,0,""
"de:02000:10004::100087","","U S Berliner Tor (Bürgerweide)",,"53.553323000000","10.026037000000",0,,0,""
"de:02000:10004::100088","","U S Berliner Tor (Bürgerweide)",,"53.552950000000","10.025455000000",0,,0,""
"de:02000:10006:2:100096","","U Burgstraße",,"53.555919000000","10.041643000000",0,,1,"Ankunft"
"de:02000:10008::100101","","Beim Hammer Marktplatz",,"53.557082000000","10.054543000000",0,,0,""
"de:02000:10009:1:100103","","U Hammer Kirche",,"53.555564000000","10.054521000000",0,,0,""
"de:02000:10009:1:100104","","U Hammer Kirche",,"53.555401000000","10.055618000000",0,,0,""
"de:02000:10006:2:100105","","U Burgstraße",,"53.556013000000","10.042249000000",0,,1,"C"
"de:02000:10007::100108","","Saling",,"53.559043000000","10.048179000000",0,,0,""
"de:02000:10011::100133","","HBF/Spitalerstraße",,"53.552643000000","10.005605000000",0,,0,""
"de:02000:60015:2:100135","","U Wartenau",,"53.563679000000","10.033804000000",0,,1,""
"de:02000:60015:1:100136","","U Wartenau",,"53.563832000000","10.034834000000",0,,1,""
"de:02000:10049::100137","","U Lohmühlenstraße",,"53.556865000000","10.019498000000",0,,0,""
"de:02000:10050::100138","","Böckmannstraße",,"53.554898000000","10.015165000000",0,,0,""
"de:02000:10050::100139","","Böckmannstraße",,"53.554676000000","10.014858000000",0,,0,""
"de:02000:10049::100140","","U Lohmühlenstraße",,"53.556907000000","10.019923000000",0,,0,""
"de:02000:10048::100141","","U Lübecker Straße",,"53.560056000000","10.028781000000",0,,0,""
"de:02000:10051::100142","","HBF/Kirchenallee",,"53.552931000000","10.008751000000",0,,0,""
"de:02000:10052::100143","","Gurlittstraße",,"53.557349000000","10.011210000000",0,,0,""
"de:02000:10053::100144","","AK St. Georg",,"53.560050000000","10.014760000000",0,,0,""
"de:02000:10054::100145","","Graumannsweg",,"53.562944000000","10.017632000000",0,,0,""
"de:02000:10053::100146","","AK St. Georg",,"53.560079000000","10.014505000000",0,,0,""
"de:02000:10052::100147","","Gurlittstraße",,"53.557492000000","10.011289000000",0,,0,""
"de:02000:10051::100148","","HBF/Kirchenallee",,"53.554085000000","10.008205000000",0,,0,""
"de:02000:10048::100151","","U Lübecker Straße",,"53.560182000000","10.028799000000",0,,0,""
"de:02000:10047::100152","","S Landwehr (Ramazan-Avci-Platz)",,"53.561105000000","10.037333000000",0,,0,""
"de:02000:10046::100154","","Bürgerweide (Ost)",,"53.559247000000","10.038208000000",0,,0,""
"de:02000:10059::100155","","Alfredstraße",,"53.557293000000","10.031339000000",0,,0,""
"de:02000:10059::100157","","Alfredstraße",,"53.557449000000","10.033139000000",0,,0,""
"de:02000:10047::100161","","S Landwehr (Ramazan-Avci-Platz)",,"53.561176000000","10.037441000000",0,,0,""
"de:02000:10044:2:100163","","Wendenstraße",,"53.547179000000","10.028845000000",0,,0,""
"de:02000:10039::100164","","Süderstraße",,"53.545487000000","10.030192000000",0,,0,""
"de:02000:10031::100166","","Billstraße",,"53.541094000000","10.033253000000",0,,0,""
"de:02000:10039::100167","","Süderstraße",,"53.546017000000","10.030250000000",0,,0,""
"de:02000:10044:2:100168","","Wendenstraße",,"53.547473000000","10.029154000000",0,,0,""
"de:02000:10040::100181","","Ausschläger Weg (LBV)",,"53.547276000000","10.037447000000",0,,0,""
"de:02000:10040::100182","","Ausschläger Weg (LBV)",,"53.547284000000","10.038549000000",0,,0,""
"de:02000:10032::100183","","Grüne Brücke",,"53.543617000000","10.040782000000",0,,0,""
"de:02000:10035::100186","","Billstraße (Mitte)",,"53.536232000000","10.056996000000",0,,0,""
"de:02000:10035::100190","","Billstraße (Mitte)",,"53.536193000000","10.057327000000",0,,0,""
"de:02000:10032::100193","","Grüne Brücke",,"53.543661000000","10.040889000000",0,,0,""
"de:02000:10040::100194","","Ausschläger Weg (LBV)",,"53.547682000000","10.039253000000",0,,0,""
"de:02000:10041::100195","","Luisenweg",,"53.548166000000","10.046703000000",0,,0,""
"de:02000:10042::100196","","Schadesweg",,"53.547612000000","10.052452000000",0,,0,""
"de:02000:10042::100197","","Schadesweg",,"53.547716000000","10.051866000000",0,,0,""
"de:02000:11033::100213","","Kunsthalle",,"53.554975000000","10.001797000000",0,,0,""
"de:02000:11001::110001","","HBF/Mönckebergstraße",,"53.551504000000","10.003470000000",0,,0,""
"de:02000:11002::110002","","Gerhart-Hauptmann-Platz",,"53.550767000000","9.998064000000",0,,0,""
"de:02000:11002::110007","","Gerhart-Hauptmann-Platz",,"53.550779000000","9.998834000000",0,,0,""
"de:02000:11027:2:110009","","U Hallerstraße",,"53.573271000000","9.988629000000",0,,1,""
"de:02000:11003:3:110011","","Rathausmarkt",,"53.550413000000","9.993980000000",0,,0,""
"de:02000:11003:3:110021","","Rathausmarkt",,"53.550394000000","9.994040000000",0,,0,""
"de:02000:11003:1:110028","","Rathausmarkt",,"53.551009000000","9.993843000000",0,,0,""
"de:02000:11027:2:110030","","U Hallerstraße",,"53.573450000000","9.988738000000",0,,1,""
"de:02000:11003:2:110031","","Rathausmarkt",,"53.550803000000","9.993838000000",0,,0,""
"de:02000:11003:2:110032","","Rathausmarkt",,"53.551144000000","9.993529000000",0,,0,""
"de:02000:11016::110034","","Museum am Rothenbaum",,"53.568439000000","9.988380000000",0,,0,""
"de:02000:11016::110040","","Museum am Rothenbaum",,"53.568465000000","9.988486000000",0,,0,""
"de:02000:11005:1:110045","","Michaeliskirche",,"53.549174000000","9.978516000000",0,,0,""
"de:02000:11005:2:110047","","Michaeliskirche",,"53.549427000000","9.978356000000",0,,0,""
"de:02000:11019::110050","","Heinrich-Hertz-Turm",,"53.564719000000","9.976324000000",0,,0,""
"de:02000:11007::110051","","Museum für Hamburgische Geschichte",,"53.550272000000","9.973939000000",0,,0,""
"de:02000:11007::110052","","Museum für Hamburgische Geschichte",,"53.551469000000","9.974797000000",0,,0,""
"de:02000:11008::110053","","Handwerkskammer",,"53.553269000000","9.976709000000",0,,0,""
"de:02000:11008::110054","","Handwerkskammer",,"53.553137000000","9.976389000000",0,,0,""
"de:02000:11009:1:110055","","Johannes-Brahms-Platz",,"53.554986000000","9.978816000000",0,,0,""
"de:02000:11009:1:110056","","Johannes-Brahms-Platz",,"53.555113000000","9.978623000000",0,,0,""
"de:02000:11010::110057","","Axel-Springer-Platz",,"53.551478000000","9.985736000000",0,,0,""
"de:02000:11012::110062","","U Gänsemarkt",,"53.555331000000","9.988646000000",0,,1,""
"de:02000:11012::110063","","U Gänsemarkt",,"53.555194000000","9.988914000000",0,,1,""
"de:02000:11013:2:110064","","U Stephansplatz",,"53.557857000000","9.989099000000",0,,1,"1"
"de:02000:11013:2:110065","","U Stephansplatz",,"53.557627000000","9.988656000000",0,,1,"2"
"de:02000:11013:1:110070","","U Stephansplatz",,"53.558079000000","9.988319000000",0,,1,"4"
"de:02000:11013:1:110071","","U Stephansplatz",,"53.558365000000","9.988522000000",0,,1,"3"
"de:02000:11034::110072","","Oberstraße",,"53.578013000000","9.988890000000",0,,0,""
"de:02000:11033::110073","","Kunsthalle",,"53.555545000000","10.001358000000",0,,0,""
"de:02000:11014:1:110074","","Sievekingplatz",,"53.555967000000","9.977466000000",0,,0,""
"de:02000:11029::110081","","U Hoheluftbrücke",,"53.578310000000","9.976208000000",0,,0,""
"de:02000:11022:3:110100","","Bf. Dammtor",,"53.561665000000","9.990455000000",0,,1,"9"
"de:02000:11022:2:110101","","Bf. Dammtor",,"53.560929000000","9.990429000000",0,,1,"5"
"de:02000:11022:2:110103","","Bf. Dammtor",,"53.561285000000","9.990006000000",0,,1,"6"
"de:02000:11022:1:110105","","Bf. Dammtor",,"53.561096000000","9.991558000000",0,,1,"8"
"de:02000:11023::110106","","Fontenay",,"53.564202000000","9.994409000000",0,,0,""
"de:02000:11023::110108","","Fontenay",,"53.564668000000","9.994541000000",0,,0,""
"de:02000:11021::110110","","Universität/Staatsbibliothek",,"53.564565000000","9.984075000000",0,,0,""
"de:02000:11021::110114","","Universität/Staatsbibliothek",,"53.564135000000","9.983424000000",0,,0,""
"de:02000:11021::110115","","Universität/Staatsbibliothek",,"53.564320000000","9.984265000000",0,,0,""
"de:02000:11035::110116","","Grindelhof",,"53.566881000000","9.981109000000",0,,0,""
"de:02000:11035::110119","","Grindelhof",,"53.567271000000","9.980755000000",0,,0,""
"de:02000:11028:1:110120","","Bezirksamt Eimsbüttel",,"53.572324000000","9.978411000000",0,,0,""
"de:02000:11028:2:110122","","Bezirksamt Eimsbüttel",,"53.572144000000","9.978437000000",0,,0,""
"de:02000:11027:1:110125","","U Hallerstraße",,"53.572753000000","9.989326000000",0,,1,""
"de:02000:11027:1:110128","","U Hallerstraße",,"53.572646000000","9.989293000000",0,,1,""
"de:02000:11025:4:110133","","Alsterchaussee",,"53.572317000000","9.994222000000",0,,0,""
"de:02000:11024::110135","","Böttgerstraße",,"53.568146000000","9.995528000000",0,,0,""
"de:02000:11024::110136","","Böttgerstraße",,"53.568496000000","9.995521000000",0,,0,""
"de:02000:11022:1:110137","","Bf. Dammtor",,"53.560858000000","9.991312000000",0,,1,"7"
"de:02000:11014:2:110139","","Sievekingplatz",,"53.556963000000","9.977670000000",0,,0,""
"de:02000:11041:2:110177","","U Baumwall",,"53.544085000000","9.980053000000",0,,1,""
"de:02000:11041:1:110178","","U Baumwall",,"53.544395000000","9.981675000000",0,,1,""
"de:02000:11046::110187","","Bei St. Annen",,"53.545542000000","9.997260000000",0,,0,""
"de:01062:32007::320026","","Stapelfeld, Reinbeker Straße",,"53.605095000000","10.218648000000",0,,0,""
"de:01062:32008::320028","","Stapelfeld, Heinrich-Ruge-Straße",,"53.605295000000","10.212202000000",0,,0,""
"de:01062:32009::320029","","Stapelfeld, Am Schwartenreeten",,"53.605375000000","10.200692000000",0,,0,""
"de:01062:32009::320031","","Stapelfeld, Am Schwartenreeten",,"53.605344000000","10.200223000000",0,,0,""
"de:01062:32008::320032","","Stapelfeld, Heinrich-Ruge-Straße",,"53.605225000000","10.209375000000",0,,0,""
"de:02000:32032::320136","","Gewerbepark Merkur (Süd)",,"53.603393000000","10.188701000000",0,,0,""
"de:02000:32032::320137","","Gewerbepark Merkur (Süd)",,"53.603142000000","10.187727000000",0,,0,""
"000000320149","","320149",,"53.605280000000","10.195009000000",0,,0,""
"de:01060:36008::360013","","Garstedt, Kohfurth",,"53.688411000000","9.984029000000",0,,0,""
"de:01060:36009::360014","","Garstedt, Aurikelstieg",,"53.690185000000","9.988900000000",0,,0,""
"de:01060:36009::360054","","Garstedt, Aurikelstieg",,"53.690071000000","9.988609000000",0,,0,""
"de:01060:36008::360055","","Garstedt, Kohfurth",,"53.689345000000","9.985065000000",0,,0,""
"de:01060:36029::360082","","Garstedt, ARRIBA-Bad",,"53.688554000000","9.997051000000",0,,0,""
"de:01060:36030::360083","","Garstedt, Breslauer Straße",,"53.684080000000","9.998050000000",0,,0,""
"de:01060:36030::360084","","Garstedt, Breslauer Straße",,"53.683918000000","9.998152000000",0,,0,""
"de:01060:36029::360085","","Garstedt, ARRIBA-Bad",,"53.687652000000","9.997499000000",0,,0,""
"de:01060:36010::360296","","Garstedt, Marommer Straße (Ost)",,"53.690700000000","9.996193000000",0,,0,""
"de:01060:36010::360297","","Garstedt, Marommer Straße (Ost)",,"53.691200000000","9.994449000000",0,,0,""
"de:02000:44007::400001","","Harmsstraße",,"53.454711000000","9.976191000000",0,,0,""
"de:02000:42013::400002","","Eißendorfer Straße (TU Hamburg)",,"53.459484000000","9.971573000000",0,,0,""
"de:02000:42019::400003","","Kasernenstraße (TU Hamburg)",,"53.463548000000","9.971304000000",0,,0,""
"de:02000:42028::400004","","Berkefeldweg",,"53.470598000000","9.952806000000",0,,0,""
"de:02000:40013::400005","","S Harburg Rathaus (Hölertwiete)",,"53.461537000000","9.982024000000",0,,0,""
"de:02000:40001::400007","","Knoopstraße/Bremer Straße",,"53.458077000000","9.981011000000",0,,0,""
"de:02000:40002::400009","","Moorstraße (Phoenix-Center)",,"53.456910000000","9.986343000000",0,,0,""
"de:02000:40000::400013","","Schellerdamm",,"53.466025000000","9.988061000000",0,,0,""
"de:02000:40004::400057","","S Harburg Rathaus",,"53.460607000000","9.981123000000",0,,1,"B"
"de:02000:40004::400016","","S Harburg Rathaus",,"53.460893000000","9.978604000000",0,,1,"D"
"de:02000:40014::400018","","S Harburg Rathaus (Eißendorfer Straße)",,"53.459961000000","9.977064000000",0,,1,""
"de:02000:40001::400021","","Knoopstraße/Bremer Straße",,"53.456837000000","9.978814000000",0,,0,""
"de:02000:40006::400023","","Seehafenbrücke (Amtsgericht)",,"53.464937000000","9.977822000000",0,,0,""
"de:02000:40007::400024","","Unterelbestraße",,"53.467238000000","9.970576000000",0,,0,""
"de:02000:40008::400025","","Grumbrechtstraße",,"53.468224000000","9.967496000000",0,,0,""
"de:02000:40009::400026","","Bissingstraße",,"53.469660000000","9.962198000000",0,,0,""
"de:02000:40009::400027","","Bissingstraße",,"53.469261000000","9.963770000000",0,,0,""
"de:02000:40008::400028","","Grumbrechtstraße",,"53.467757000000","9.968615000000",0,,0,""
"de:02000:40007::400029","","Unterelbestraße",,"53.466660000000","9.972098000000",0,,0,""
"de:02000:40006::400030","","Seehafenbrücke (Amtsgericht)",,"53.464995000000","9.977327000000",0,,0,""
"de:02000:40011::400034","","Neuländer Straße",,"53.466863000000","9.992146000000",0,,0,""
"de:02000:40012::400037","","Süderelbe (Süd)",,"53.470540000000","9.994024000000",0,,0,""
"de:02000:40012::400039","","Süderelbe (Süd)",,"53.470161000000","9.993217000000",0,,0,""
"de:02000:40011::400040","","Neuländer Straße",,"53.466215000000","9.991197000000",0,,0,""
"de:02000:40004::400042","","S Harburg Rathaus",,"53.460845000000","9.979165000000",0,,1,"E"
"de:02000:40003::400045","","Harburger Ring",,"53.459282000000","9.984245000000",0,,0,""
"de:02000:40000::400047","","Schellerdamm",,"53.466010000000","9.987714000000",0,,0,""
"de:02000:40004::400015","","S Harburg Rathaus",,"53.460573000000","9.981366000000",0,,1,"A"
"de:02000:41012::410013","","An de Geest",,"53.470620000000","9.819017000000",0,,0,""
"de:02000:41013::410015","","Neckersstücken",,"53.471298000000","9.821048000000",0,,0,""
"de:02000:41014::410016","","Ohrnsweg",,"53.473848000000","9.822663000000",0,,0,""
"de:02000:41015::410018","","Fischbeker Heuweg",,"53.471038000000","9.827534000000",0,,0,""
"de:02000:41016::410019","","Rostweg",,"53.471422000000","9.831682000000",0,,0,""
"de:02000:41017::410020","","Geutensweg",,"53.472339000000","9.840676000000",0,,0,""
"de:02000:41018::410021","","Stremelweg",,"53.472622000000","9.843845000000",0,,0,""
"de:02000:41019::410026","","S Neugraben",,"53.473665000000","9.853805000000",0,,1,"A"
"de:02000:41018::410029","","Stremelweg",,"53.472779000000","9.844450000000",0,,0,""
"de:02000:41017::410030","","Geutensweg",,"53.472277000000","9.839229000000",0,,0,""
"de:02000:41016::410031","","Rostweg",,"53.471663000000","9.833178000000",0,,0,""
"de:02000:41015::410033","","Fischbeker Heuweg",,"53.471476000000","9.826473000000",0,,0,""
"de:02000:41014::410034","","Ohrnsweg",,"53.473928000000","9.821415000000",0,,0,""
"de:02000:41013::410035","","Neckersstücken",,"53.471583000000","9.820135000000",0,,0,""
"de:02000:41012::410038","","An de Geest",,"53.469832000000","9.818610000000",0,,0,""
"de:02000:41019::410054","","S Neugraben",,"53.473613000000","9.853503000000",0,,1,"C"
"de:02000:41031::410055","","Georg-Heyken-Straße",,"53.482777000000","9.900160000000",0,,0,""
"de:02000:41038::410058","","Neugrabener Markt",,"53.470570000000","9.854376000000",0,,0,""
"de:02000:41041::410060","","Fischbeker Holtweg",,"53.467534000000","9.859269000000",0,,0,""
"de:02000:41043::410063","","Neugrabener Heideweg",,"53.462156000000","9.866117000000",0,,0,""
"de:02000:41044::410064","","Lüttmattensteed",,"53.459009000000","9.866399000000",0,,0,""
"de:02000:41045::410065","","Bauernholztal",,"53.456841000000","9.866701000000",0,,0,""
"de:02000:41046::410066","","Quellgrund",,"53.453065000000","9.867045000000",0,,0,""
"de:02000:41047::410067","","Waldfrieden (Kehre)",,"53.449409000000","9.868070000000",0,,0,""
"de:02000:41046::410068","","Quellgrund",,"53.453325000000","9.867126000000",0,,0,""
"de:02000:41045::410069","","Bauernholztal",,"53.456239000000","9.866794000000",0,,0,""
"de:02000:41044::410070","","Lüttmattensteed",,"53.459476000000","9.866453000000",0,,0,""
"de:02000:41043::410071","","Neugrabener Heideweg",,"53.462317000000","9.866180000000",0,,0,""
"de:02000:41041::410074","","Fischbeker Holtweg",,"53.467306000000","9.860966000000",0,,0,""
"de:02000:41038::410075","","Neugrabener Markt",,"53.471072000000","9.854536000000",0,,0,""
"de:02000:41040::410084","","Fischbeker Heideweg",,"53.459316000000","9.851244000000",0,,0,""
"de:02000:41039::410085","","Grundheide",,"53.464193000000","9.855241000000",0,,0,""
"de:02000:41039::410087","","Grundheide",,"53.464481000000","9.855157000000",0,,0,""
"de:02000:41040::410088","","Fischbeker Heideweg",,"53.459448000000","9.851548000000",0,,0,""
"de:02000:41037::410090","","Francoper Straße",,"53.471444000000","9.864062000000",0,,0,""
"de:02000:41035::410093","","Opferberg",,"53.471938000000","9.877596000000",0,,0,""
"de:02000:41034::410094","","Talweg",,"53.472041000000","9.884360000000",0,,0,""
"de:02000:41033::410095","","Hausbruch",,"53.471685000000","9.894789000000",0,,0,""
"de:02000:41032::410097","","Haake",,"53.470875000000","9.902076000000",0,,0,""
"de:02000:42033::410098","","Försterkamp",,"53.470536000000","9.915969000000",0,,0,""
"de:02000:41030::410103","","Zum Dubben",,"53.473976000000","9.904356000000",0,,0,""
"de:02000:41032::410106","","Haake",,"53.471201000000","9.900577000000",0,,0,""
"de:02000:41033::410107","","Hausbruch",,"53.471831000000","9.893226000000",0,,0,""
"de:02000:41034::410108","","Talweg",,"53.472143000000","9.882690000000",0,,0,""
"de:02000:41037::410112","","Francoper Straße",,"53.470301000000","9.863105000000",0,,0,""
"de:02000:41036::410115","","S Neuwiedenthal",,"53.472925000000","9.874152000000",0,,1,"A"
"de:02000:41022::410116","","Rehrstieg",,"53.476827000000","9.875046000000",0,,0,""
"de:02000:41023::410119","","Twistering",,"53.477789000000","9.878696000000",0,,0,""
"de:02000:41024::410120","","Hardauring",,"53.478323000000","9.884235000000",0,,0,""
"de:02000:41025::410121","","Altwiedenthaler Straße",,"53.478125000000","9.887936000000",0,,0,""
"de:02000:41026::410122","","Hausbrucher Bahnhofstraße",,"53.477378000000","9.895301000000",0,,0,""
"de:02000:41027::410125","","Neuwiedenthaler Straße (Ost)",,"53.476785000000","9.898888000000",0,,0,""
"de:02000:41027::410130","","Neuwiedenthaler Straße (Ost)",,"53.477611000000","9.898905000000",0,,0,""
"de:02000:41028::410131","","Moorburger Kreuzung",,"53.496194000000","9.910585000000",0,,0,""
"de:02000:41028::410133","","Moorburger Kreuzung",,"53.495139000000","9.909945000000",0,,0,""
"de:02000:41027::410136","","Neuwiedenthaler Straße (Ost)",,"53.477167000000","9.898263000000",0,,0,""
"de:02000:41026::410137","","Hausbrucher Bahnhofstraße",,"53.477594000000","9.894025000000",0,,0,""
"de:02000:41025::410138","","Altwiedenthaler Straße",,"53.478120000000","9.888523000000",0,,0,""
"de:02000:41024::410139","","Hardauring",,"53.478341000000","9.883015000000",0,,0,""
"de:02000:41023::410140","","Twistering",,"53.477876000000","9.879059000000",0,,0,""
"de:02000:41022::410143","","Rehrstieg",,"53.476747000000","9.874969000000",0,,0,""
"de:02000:41035::410147","","Opferberg",,"53.471987000000","9.875790000000",0,,0,""
"de:02000:41037::410148","","Francoper Straße",,"53.471481000000","9.862662000000",0,,0,""
"de:02000:41022::410150","","Rehrstieg",,"53.477224000000","9.873563000000",0,,0,""
"de:02000:41020::410152","","Neuwiedenthaler Straße (West)",,"53.476813000000","9.862092000000",0,,0,""
"de:02000:41020::410153","","Neuwiedenthaler Straße (West)",,"53.476726000000","9.861744000000",0,,0,""
"de:02000:41022::410155","","Rehrstieg",,"53.476908000000","9.874987000000",0,,0,""
"de:02000:41032::410157","","Haake",,"53.471374000000","9.901394000000",0,,0,""
"de:02000:41031::410158","","Georg-Heyken-Straße",,"53.482812000000","9.900356000000",0,,0,""
"de:02000:41048::410164","","Heykenaukamp (Kehre)",,"53.477864000000","9.909424000000",0,,0,""
"de:02000:41048::410165","","Heykenaukamp (Kehre)",,"53.478186000000","9.909567000000",0,,0,""
"de:02000:41021::410171","","Friedhof Neuwiedenthal",,"53.476360000000","9.867656000000",0,,0,""
"de:02000:41021::410172","","Friedhof Neuwiedenthal",,"53.476348000000","9.869267000000",0,,0,""
"de:02000:41050::410176","","Heykenauweg (Süd)",,"53.479439000000","9.900782000000",0,,0,""
"de:02000:41050::410177","","Heykenauweg (Süd)",,"53.479803000000","9.901377000000",0,,0,""
"de:02000:41050::410183","","Heykenauweg (Süd)",,"53.479423000000","9.901761000000",0,,0,""
"de:02000:41058::410205","","Ringheide",,"53.462023000000","9.854565000000",0,,0,""
"de:02000:41058::410206","","Ringheide",,"53.461917000000","9.854443000000",0,,0,""
"de:02000:41019::410211","","S Neugraben",,"53.473611000000","9.852584000000",0,,1,"B"
"de:02000:41036::410213","","S Neuwiedenthal",,"53.472905000000","9.874363000000",0,,1,"B"
"de:02000:41036::410214","","S Neuwiedenthal",,"53.472886000000","9.874543000000",0,,1,"C"
"de:02000:42023::64202301","","Heimfelder Straße 123",,"53.460949000000","9.940169000000",0,,0,""
"de:02000:42033::420001","","Försterkamp",,"53.470472000000","9.917293000000",0,,0,""
"de:02000:42001::420002","","Rickelstraße",,"53.448793000000","9.949097000000",0,,0,""
"de:02000:42002::420003","","Beerentalweg",,"53.448344000000","9.943412000000",0,,0,""
"de:02000:42003::420004","","Strucksbarg",,"53.449983000000","9.937127000000",0,,0,""
"de:02000:42003::420005","","Strucksbarg",,"53.449851000000","9.937952000000",0,,0,""
"de:02000:42002::420006","","Beerentalweg",,"53.448348000000","9.942825000000",0,,0,""
"de:02000:42001::420007","","Rickelstraße",,"53.448860000000","9.949670000000",0,,0,""
"de:02000:44016::420008","","Göhlbachtal",,"53.453510000000","9.954787000000",0,,0,""
"de:02000:42010::420011","","Lübbersweg",,"53.455887000000","9.955202000000",0,,0,""
"de:02000:42011::420012","","Mehringweg",,"53.456868000000","9.960598000000",0,,0,""
"de:02000:42012::420013","","Dempwolffstraße",,"53.457815000000","9.965784000000",0,,0,""
"de:02000:42013::420014","","Eißendorfer Straße (TU Hamburg)",,"53.459108000000","9.970375000000",0,,0,""
"de:02000:42012::420015","","Dempwolffstraße",,"53.458136000000","9.967206000000",0,,0,""
"de:02000:42011::420016","","Mehringweg",,"53.456948000000","9.960751000000",0,,0,""
"de:02000:42010::420017","","Lübbersweg",,"53.455975000000","9.955430000000",0,,0,""
"de:02000:42005::420021","","Auf der Jahnhöhe",,"53.453791000000","9.929383000000",0,,0,""
"de:02000:42006::420023","","Ehestorfer Weg (Mitte)",,"53.455013000000","9.937448000000",0,,0,""
"de:02000:42007::420024","","Bünte",,"53.455286000000","9.942663000000",0,,0,""
"de:02000:42008::420025","","Lichtenauerweg",,"53.455069000000","9.946316000000",0,,0,""
"de:02000:42009::420027","","Gellersenweg",,"53.454900000000","9.949504000000",0,,0,""
"de:02000:42009::420028","","Gellersenweg",,"53.455070000000","9.947265000000",0,,0,""
"de:02000:42007::420030","","Bünte",,"53.455319000000","9.943100000000",0,,0,""
"de:02000:42006::420031","","Ehestorfer Weg (Mitte)",,"53.455000000000","9.936725000000",0,,0,""
"de:02000:42005::420033","","Auf der Jahnhöhe",,"53.453991000000","9.930245000000",0,,0,""
"de:02000:42016::420038","","Lohmannsweg",,"53.464215000000","9.957647000000",0,,0,""
"de:02000:42017::420039","","Thörlstraße",,"53.464569000000","9.959553000000",0,,0,""
"de:02000:42018::420040","","S Heimfeld",,"53.465227000000","9.962564000000",0,,0,""
"de:02000:42019::420042","","Kasernenstraße (TU Hamburg)",,"53.463743000000","9.970511000000",0,,0,""
"de:02000:42018::420043","","S Heimfeld",,"53.465220000000","9.962308000000",0,,0,""
"de:02000:42017::420044","","Thörlstraße",,"53.464666000000","9.959766000000",0,,0,""
"de:02000:42016::420045","","Lohmannsweg",,"53.464115000000","9.956727000000",0,,0,""
"de:02000:42024::420060","","Eißendorfer Pferdeweg (Mitte)",,"53.462906000000","9.950631000000",0,,0,""
"de:02000:42024::420061","","Eißendorfer Pferdeweg (Mitte)",,"53.462882000000","9.950255000000",0,,0,""
"de:02000:42026::420068","","Lühmannstraße",,"53.457688000000","9.946841000000",0,,0,""
"de:02000:42027::420069","","Triftstraße",,"53.457787000000","9.943441000000",0,,0,""
"de:02000:42028::420075","","Berkefeldweg",,"53.470732000000","9.951800000000",0,,0,""
"de:02000:42029::420077","","Eißendorfer Pferdeweg (Nord)",,"53.471111000000","9.944836000000",0,,0,""
"de:02000:42030::420078","","Krankenhaus Mariahilf",,"53.471028000000","9.935949000000",0,,0,""
"de:02000:42031::420079","","Bostelbek",,"53.470908000000","9.931684000000",0,,0,""
"de:02000:42032::420081","","Moorstieg",,"53.470653000000","9.920625000000",0,,0,""
"de:02000:44017::420082","","Seestücken",,"53.449421000000","9.953672000000",0,,0,""
"de:02000:42032::420083","","Moorstieg",,"53.470559000000","9.921090000000",0,,0,""
"de:02000:42031::420084","","Bostelbek",,"53.470840000000","9.932421000000",0,,0,""
"de:02000:42030::420086","","Krankenhaus Mariahilf",,"53.470957000000","9.936896000000",0,,0,""
"de:02000:42029::420088","","Eißendorfer Pferdeweg (Nord)",,"53.470945000000","9.946429000000",0,,0,""
"de:02000:42038::420090","","Forstweg",,"53.459705000000","9.938335000000",0,,0,""
"de:02000:42029::420104","","Eißendorfer Pferdeweg (Nord)",,"53.470150000000","9.945854000000",0,,0,""
"de:02000:42040::420105","","Hainholzweg (Mitte)",,"53.450690000000","9.929526000000",0,,0,""
"de:02000:42041::420106","","Große Straße",,"53.450645000000","9.923714000000",0,,0,""
"de:02000:42041::420107","","Große Straße",,"53.450519000000","9.923817000000",0,,0,""
"de:02000:42040::420108","","Hainholzweg (Mitte)",,"53.450578000000","9.931194000000",0,,0,""
"de:03353:43014::430015","","Fleestedt, Mühlenweg",,"53.414073000000","9.984509000000",0,,0,""
"de:02000:43017::430020","","Rönneburger Kirchweg",,"53.428738000000","9.982305000000",0,,0,""
"de:02000:43018::430021","","Buchholzer Weg",,"53.432041000000","9.983796000000",0,,0,""
"de:02000:43020::430024","","Freudenthalweg",,"53.439804000000","9.988219000000",0,,0,""
"de:02000:43021::430026","","Winsener Straße (Nord)",,"53.445963000000","9.991056000000",0,,0,""
"de:02000:43022::430027","","Reeseberg",,"53.451311000000","9.987583000000",0,,0,""
"de:02000:43021::430028","","Winsener Straße (Nord)",,"53.446926000000","9.990868000000",0,,0,""
"de:02000:43020::430031","","Freudenthalweg",,"53.439073000000","9.987555000000",0,,0,""
"de:02000:43018::430034","","Buchholzer Weg",,"53.431202000000","9.983084000000",0,,0,""
"de:02000:43017::430035","","Rönneburger Kirchweg",,"53.428049000000","9.981943000000",0,,0,""
"de:02000:43016:1:430037","","Sinstorfer Kirchweg",,"53.424223000000","9.980637000000",0,,0,""
"de:03353:43014::430041","","Fleestedt, Mühlenweg",,"53.414011000000","9.984402000000",0,,0,""
"de:02000:43052::430060","","Maretstraße (Bürgerzentrum)",,"53.452192000000","9.983178000000",0,,0,""
"de:02000:43027::430062","","Haithabuweg",,"53.424987000000","9.968469000000",0,,0,""
"de:02000:43027::430066","","Haithabuweg",,"53.425174000000","9.967601000000",0,,0,""
"de:02000:43053::430067","","Freizeitbad MidSommerland",,"53.447878000000","9.981107000000",0,,0,""
"de:02000:43053::430068","","Freizeitbad MidSommerland",,"53.447798000000","9.981014000000",0,,0,""
"de:03353:43026::430069","","Hirschkäferweg",,"53.426486000000","9.960906000000",0,,0,""
"de:03353:43026::430070","","Hirschkäferweg",,"53.426247000000","9.961532000000",0,,0,""
"de:03353:43055::430071","","Meckelfeld, Hillenklint",,"53.426039000000","10.018048000000",0,,0,""
"de:03353:43055::430076","","Meckelfeld, Hillenklint",,"53.425406000000","10.018514000000",0,,0,""
"de:03353:43036::430079","","Meckelfeld, Roggenkamp",,"53.415331000000","10.026109000000",0,,0,""
"de:03353:43039::430080","","Meckelfeld, Lönsring",,"53.418851000000","10.026390000000",0,,0,""
"de:03353:43040::430082","","Meckelfeld, Am Felde",,"53.422537000000","10.029322000000",0,,0,""
"de:03353:43056::430083","","Meckelfeld, Am Blöcken",,"53.428414000000","10.015622000000",0,,0,""
"de:03353:43056::430084","","Meckelfeld, Am Blöcken",,"53.428495000000","10.015654000000",0,,0,""
"de:03353:43040::430085","","Meckelfeld, Am Felde",,"53.422824000000","10.029344000000",0,,0,""
"de:03353:43034::430086","","Meckelfeld, An den Höfen",,"53.422339000000","10.024097000000",0,,0,""
"de:03353:43033::430087","","Meckelfeld, Rönneburger Straße",,"53.422078000000","10.018961000000",0,,0,""
"de:03353:43032::430088","","Meckelfeld, Helbach-Haus",,"53.422014000000","10.015846000000",0,,0,""
"de:03353:43031::430089","","Meckelfeld, Alter Kirchweg",,"53.422410000000","10.011538000000",0,,0,""
"de:03353:43030::430090","","Meckelfeld, Buchenhain",,"53.422776000000","10.005514000000",0,,0,""
"de:03353:43029::430091","","Meckelfeld, Waldquelle",,"53.424160000000","9.996912000000",0,,0,""
"de:02000:43028::430093","","Höpengrund",,"53.424889000000","9.992401000000",0,,0,""
"de:02000:43028::430096","","Höpengrund",,"53.424692000000","9.993405000000",0,,0,""
"de:03353:43029::430098","","Meckelfeld, Waldquelle",,"53.423851000000","9.998349000000",0,,0,""
"de:03353:43030::430099","","Meckelfeld, Buchenhain",,"53.422858000000","10.004238000000",0,,0,""
"de:03353:43031::430100","","Meckelfeld, Alter Kirchweg",,"53.422399000000","10.010725000000",0,,0,""
"de:03353:43032::430101","","Meckelfeld, Helbach-Haus",,"53.421999000000","10.015560000000",0,,0,""
"de:03353:43033::430102","","Meckelfeld, Rönneburger Straße",,"53.422001000000","10.018493000000",0,,0,""
"de:03353:43034::430103","","Meckelfeld, An den Höfen",,"53.422232000000","10.024049000000",0,,0,""
"de:03353:43035::430105","","Meckelfeld, Lerchenweg",,"53.417124000000","10.026634000000",0,,0,""
"de:03353:43036::430106","","Meckelfeld, Roggenkamp",,"53.413828000000","10.025351000000",0,,0,""
"de:03353:43037::430107","","Meckelfeld, Schulzentrum",,"53.412786000000","10.024318000000",0,,0,""
"de:03353:43037::5600701","","Meckelfeld, Schulzentrum",,"53.412517000000","10.024147000000",0,,0,""
"de:02000:43016:2:430112","","Sinstorfer Kirchweg",,"53.425055000000","9.981062000000",0,,0,""
"de:02000:43042::430113","","An der Eiche",,"53.434255000000","10.010315000000",0,,0,""
"de:02000:43043::430114","","Küstersweg",,"53.437598000000","10.003848000000",0,,0,""
"de:02000:43044::430115","","Radickestraße",,"53.440045000000","10.001393000000",0,,0,""
"de:02000:43046::430117","","Mensingstraße",,"53.442568000000","9.997283000000",0,,0,""
"de:02000:43021::430118","","Winsener Straße (Nord)",,"53.444951000000","9.991740000000",0,,0,""
"de:02000:43046::430119","","Mensingstraße",,"53.442713000000","9.997151000000",0,,0,""
"de:02000:43044::430120","","Radickestraße",,"53.439862000000","10.001765000000",0,,0,""
"de:02000:43045::430123","","Höpenstraße",,"53.441483000000","10.003488000000",0,,0,""
"de:02000:43043::430124","","Küstersweg",,"53.437488000000","10.004101000000",0,,0,""
"de:02000:43042::430125","","An der Eiche",,"53.434089000000","10.010807000000",0,,0,""
"de:02000:43047::430126","","Zum Jägerfeld",,"53.435672000000","9.977108000000",0,,0,""
"de:02000:43047::430128","","Zum Jägerfeld",,"53.435712000000","9.977726000000",0,,0,""
"de:03353:43048::430131","","Meckelfeld, Mattenmoorstraße",,"53.421245000000","10.025981000000",0,,0,""
"de:03353:43048::430132","","Meckelfeld, Mattenmoorstraße",,"53.421193000000","10.025769000000",0,,0,""
"de:03353:43049::430133","","Glüsingen, Triftweg",,"53.410359000000","10.020125000000",0,,0,""
"de:03353:43050::430134","","Meckelfeld, Am Grasweg",,"53.417087000000","10.020481000000",0,,0,""
"de:03353:43050::430135","","Meckelfeld, Am Grasweg",,"53.416129000000","10.020067000000",0,,0,""
"de:03353:43049::430136","","Glüsingen, Triftweg",,"53.410248000000","10.020543000000",0,,0,""
"de:02000:43051::430150","","Sinstorfer Kirche",,"53.424227000000","9.973566000000",0,,0,""
"de:02000:43051::430151","","Sinstorfer Kirche",,"53.424210000000","9.973355000000",0,,0,""
"de:02000:43052::430152","","Maretstraße (Bürgerzentrum)",,"53.452108000000","9.983583000000",0,,0,""
"de:02000:43057::430159","","Marienkäferweg",,"53.425563000000","9.963879000000",0,,0,""
"de:03353:43033::430162","","Meckelfeld, Rönneburger Straße",,"53.421295000000","10.021154000000",0,,0,""
"de:03353:43033::430163","","Meckelfeld, Rönneburger Straße",,"53.421439000000","10.021172000000",0,,0,""
"de:02000:43057::430165","","Marienkäferweg",,"53.425322000000","9.964851000000",0,,0,""
"de:02000:43060::430172","","Vorderkamp",,"53.439542000000","10.010907000000",0,,0,""
"de:02000:43060::430173","","Vorderkamp",,"53.440059000000","10.010377000000",0,,0,""
"de:02000:43062::430174","","Grenzkehre",,"53.416545000000","9.984446000000",0,,0,""
"de:02000:43062::430175","","Grenzkehre",,"53.416679000000","9.984509000000",0,,0,""
"de:02000:43063::430176","","Außenmühle",,"53.450170000000","9.982138000000",0,,0,""
"de:02000:43063::430177","","Außenmühle",,"53.450277000000","9.982155000000",0,,0,""
"de:02000:43078::430195","","Einhausring",,"53.434012000000","9.989905000000",0,,0,""
"de:02000:44000::440000","","Eißendorfer Mühlenweg",,"53.448091000000","9.961604000000",0,,0,""
"de:02000:44001::440002","","Osterfeldweg",,"53.435991000000","9.972255000000",0,,0,""
"de:02000:44002::440003","","Feuerteichweg",,"53.436709000000","9.966719000000",0,,0,""
"de:02000:44003::440006","","Marmstorfer Kirche",,"53.439434000000","9.967549000000",0,,0,""
"de:02000:44004::440008","","Nymphenweg",,"53.441951000000","9.968599000000",0,,0,""
"de:02000:44005::440009","","Rabenstein",,"53.446455000000","9.969364000000",0,,0,""
"de:02000:44006::440011","","Marmstorfer Weg (Nord)",,"53.452135000000","9.972639000000",0,,0,""
"de:02000:44007::440012","","Harmsstraße",,"53.454935000000","9.976347000000",0,,0,""
"de:02000:44006::440014","","Marmstorfer Weg (Nord)",,"53.451536000000","9.972219000000",0,,0,""
"de:02000:44005::440015","","Rabenstein",,"53.445756000000","9.969152000000",0,,0,""
"de:02000:44004::440016","","Nymphenweg",,"53.441666000000","9.968292000000",0,,0,""
"de:02000:44003::440018","","Marmstorfer Kirche",,"53.439498000000","9.967490000000",0,,0,""
"de:02000:44002::440021","","Feuerteichweg",,"53.436286000000","9.966830000000",0,,0,""
"de:02000:44001::440022","","Osterfeldweg",,"53.435977000000","9.971698000000",0,,0,""
"de:02000:44014::440025","","Up den Wiemen (EKZ Marmstorf)",,"53.440677000000","9.959465000000",0,,0,""
"de:02000:44014::440032","","Up den Wiemen (EKZ Marmstorf)",,"53.440719000000","9.959767000000",0,,0,""
"de:02000:44013::440035","","Appelbütteler Weg",,"53.436598000000","9.934424000000",0,,0,""
"de:02000:44012::440036","","Langenberg",,"53.439629000000","9.942060000000",0,,0,""
"de:02000:44011::440037","","Schafshagenberg",,"53.441009000000","9.946034000000",0,,0,""
"de:02000:44010::440038","","Vogelhüttenberg",,"53.442748000000","9.949955000000",0,,0,""
"de:02000:44009::440040","","Neuer Friedhof",,"53.446380000000","9.957487000000",0,,0,""
"de:02000:44008::440041","","Gottschalkring",,"53.449732000000","9.966353000000",0,,0,""
"de:02000:44006::440042","","Marmstorfer Weg (Nord)",,"53.451297000000","9.970633000000",0,,0,""
"de:02000:44008::440043","","Gottschalkring",,"53.449770000000","9.966143000000",0,,0,""
"de:02000:44009::440045","","Neuer Friedhof",,"53.445739000000","9.955696000000",0,,0,""
"de:02000:44010::440047","","Vogelhüttenberg",,"53.442555000000","9.949334000000",0,,0,""
"de:02000:44011::440048","","Schafshagenberg",,"53.440666000000","9.944988000000",0,,0,""
"de:02000:44012::440049","","Langenberg",,"53.439558000000","9.940795000000",0,,0,""
"de:02000:44016::440052","","Göhlbachtal",,"53.452584000000","9.954842000000",0,,0,""
"de:02000:44017::440054","","Seestücken",,"53.449500000000","9.953975000000",0,,0,""
"de:02000:44015::440055","","Beutnerring",,"53.443312000000","9.955747000000",0,,0,""
"de:02000:44015::440056","","Beutnerring",,"53.443248000000","9.955956000000",0,,0,""
"de:02000:44000::440057","","Eißendorfer Mühlenweg",,"53.448250000000","9.961909000000",0,,0,""
"de:02000:43022::490001","","Reeseberg",,"53.450780000000","9.987722000000",0,,0,""
"de:03353:49000::490004","","Groß Moor",,"53.445042000000","10.046301000000",0,,0,""
"de:03353:49008::490012","","Fünfhausener Straße (Süd)",,"53.446077000000","10.033759000000",0,,0,""
"de:02000:49007::490013","","Kanzlershofer Weg",,"53.447876000000","10.023101000000",0,,0,""
"de:02000:49006::490014","","Großmoordamm 181",,"53.448924000000","10.017196000000",0,,0,""
"de:02000:49005::490015","","Großmoordamm 121",,"53.451411000000","10.009954000000",0,,0,""
"de:02000:49004::490016","","Großmoorbogen",,"53.453125000000","10.005976000000",0,,0,""
"de:02000:49003::490017","","Wohlersweg",,"53.455929000000","9.999554000000",0,,0,""
"de:03353:49000::490018","","Groß Moor",,"53.445157000000","10.046545000000",0,,0,""
"de:02000:49003::490019","","Wohlersweg",,"53.455721000000","9.999624000000",0,,0,""
"de:02000:49004::490020","","Großmoorbogen",,"53.453274000000","10.005422000000",0,,0,""
"de:02000:49005::490021","","Großmoordamm 121",,"53.451440000000","10.009789000000",0,,0,""
"de:02000:49006::490022","","Großmoordamm 181",,"53.448880000000","10.017089000000",0,,0,""
"de:02000:49007::490023","","Kanzlershofer Weg",,"53.447849000000","10.023115000000",0,,0,""
"de:03353:49008::490024","","Fünfhausener Straße (Süd)",,"53.446062000000","10.033443000000",0,,0,""
"de:02000:49901::499509","","Großmoorring",,"53.456884000000","10.008880000000",0,,0,""
"de:02000:49901::499510","","Großmoorring",,"53.455985000000","10.007865000000",0,,0,""
"de:02000:49903::499513","","Neuländer Weg",,"53.462939000000","10.006901000000",0,,0,""
"de:02000:49903::499514","","Neuländer Weg",,"53.462889000000","10.007411000000",0,,0,""
"de:02000:50001::500001","","Ziegelerstraße",,"53.498473000000","9.991181000000",0,,0,""
"de:02000:50003::500006","","Rathaus Wilhelmsburg",,"53.499225000000","9.996940000000",0,,0,""
"de:02000:50004::500007","","Dratelnstraße",,"53.498546000000","9.999652000000",0,,0,""
"de:02000:50003::500008","","Rathaus Wilhelmsburg",,"53.499500000000","9.996239000000",0,,0,""
"de:02000:50005::500011","","Rotenhäuser Straße (West)",,"53.504514000000","9.991985000000",0,,0,""
"de:02000:50006::500013","","Neuhöfer Straße (Ost)",,"53.510236000000","9.992119000000",0,,0,""
"de:02000:50007::500016","","Vogelhüttendeich",,"53.515976000000","9.993414000000",0,,0,""
"de:02000:50008::500017","","Werkcentrum Elbinsel",,"53.520042000000","10.000445000000",0,,0,""
"de:02000:50009::500018","","Harburger Chaussee",,"53.520751000000","10.007005000000",0,,0,""
"de:02000:50008::500019","","Werkcentrum Elbinsel",,"53.519997000000","9.998303000000",0,,0,""
"de:02000:50006::500023","","Neuhöfer Straße (Ost)",,"53.509541000000","9.992495000000",0,,0,""
"de:02000:50005::500025","","Rotenhäuser Straße (West)",,"53.504533000000","9.991880000000",0,,0,""
"de:02000:50014::500026","","Neuhöfer Straße (Mitte)",,"53.510705000000","9.982121000000",0,,0,""
"de:02000:50012::500027","","Veringstraße (Mitte)",,"53.510435000000","9.987707000000",0,,0,""
"de:02000:50012::500028","","Veringstraße (Mitte)",,"53.510493000000","9.987211000000",0,,0,""
"de:02000:50013::500029","","Krankenhaus Groß-Sand",,"53.506269000000","9.986178000000",0,,0,""
"de:02000:50012::500030","","Veringstraße (Mitte)",,"53.510761000000","9.986764000000",0,,0,""
"de:02000:50007::500033","","Vogelhüttendeich",,"53.516414000000","9.992595000000",0,,0,""
"de:02000:50013::500038","","Krankenhaus Groß-Sand",,"53.506862000000","9.986162000000",0,,0,""
"de:02000:50010::500039","","Stübenplatz",,"53.517519000000","9.987194000000",0,,0,""
"de:02000:50016::500040","","Industriestraße",,"53.517049000000","9.982072000000",0,,0,""
"de:02000:50002::500041","","Mengestraße",,"53.501641000000","9.991632000000",0,,0,""
"de:02000:51020::510000","","Norderkirchenweg",,"53.528265000000","9.864359000000",0,,0,""
"de:02000:51001::510001","","Estebogen",,"53.530630000000","9.772218000000",0,,0,""
"de:02000:51002::510002","","Altes Estesperrwerk",,"53.533611000000","9.775455000000",0,,0,""
"de:02000:51003::510003","","Cranz (Fähre)",,"53.535533000000","9.779653000000",0,,0,""
"de:02000:51004::510004","","Cranzer Elbdeich (West)",,"53.540327000000","9.774763000000",0,,0,""
"de:02000:51005::510005","","Sperrwerk Estemündung",,"53.533776000000","9.794084000000",0,,0,""
"de:02000:51006::510006","","Neuenfelder Damm",,"53.529944000000","9.805458000000",0,,0,""
"de:02000:51008::510009","","AIRBUS",,"53.536559000000","9.848028000000",0,,0,""
"de:02000:51009::510010","","Rudolf-Kinau-Allee",,"53.535670000000","9.853047000000",0,,0,""
"de:02000:51010::510012","","Nordmeerstraße",,"53.534614000000","9.859934000000",0,,0,""
"de:02000:51011::510013","","Kneienblick",,"53.533922000000","9.866149000000",0,,0,""
"de:02000:51012::510014","","Norderschulweg",,"53.533466000000","9.875686000000",0,,0,""
"de:02000:51014::510017","","Finkenwerder (Fähre)",,"53.535148000000","9.879160000000",0,,0,""
"de:02000:51016::510020","","Emder Straße",,"53.530118000000","9.878829000000",0,,0,""
"de:02000:51017::510021","","Auedeich",,"53.526899000000","9.884071000000",0,,0,""
"de:02000:51018::510022","","Osterfelddeich",,"53.519755000000","9.885354000000",0,,0,""
"de:02000:51019::510023","","Aluminiumwerk",,"53.517923000000","9.890020000000",0,,0,""
"de:02000:51018::510024","","Osterfelddeich",,"53.520208000000","9.886042000000",0,,0,""
"de:02000:51017::510025","","Auedeich",,"53.526710000000","9.885364000000",0,,0,""
"de:02000:51016::510026","","Emder Straße",,"53.529794000000","9.878913000000",0,,0,""
"de:02000:51013::510027","","Steendiek",,"53.532824000000","9.878750000000",0,,0,""
"de:02000:51013::510029","","Steendiek",,"53.532796000000","9.878794000000",0,,0,""
"de:02000:51012::510031","","Norderschulweg",,"53.533488000000","9.876335000000",0,,0,""
"de:02000:51011::510032","","Kneienblick",,"53.534008000000","9.864205000000",0,,0,""
"de:02000:51010::510034","","Nordmeerstraße",,"53.534799000000","9.859244000000",0,,0,""
"de:02000:51009::510035","","Rudolf-Kinau-Allee",,"53.535674000000","9.853636000000",0,,0,""
"de:02000:51008::510037","","AIRBUS",,"53.536649000000","9.847924000000",0,,0,""
"de:02000:51006::510039","","Neuenfelder Damm",,"53.529848000000","9.806346000000",0,,0,""
"de:02000:51005::510040","","Sperrwerk Estemündung",,"53.534094000000","9.793487000000",0,,0,""
"de:02000:51004::510041","","Cranzer Elbdeich (West)",,"53.540164000000","9.774926000000",0,,0,""
"de:02000:51003::510042","","Cranz (Fähre)",,"53.535392000000","9.779288000000",0,,0,""
"de:02000:51002::510043","","Altes Estesperrwerk",,"53.533942000000","9.775596000000",0,,0,""
"de:02000:51001::510044","","Estebogen",,"53.530442000000","9.772139000000",0,,0,""
"de:02000:51020::510045","","Norderkirchenweg",,"53.528249000000","9.864163000000",0,,0,""
"de:02000:51021::510046","","Finkenwerder Landscheideweg",,"53.528217000000","9.859789000000",0,,0,""
"de:02000:51022::510047","","Nordmeertwiete",,"53.531844000000","9.859018000000",0,,0,""
"de:02000:51010::510048","","Nordmeerstraße",,"53.534198000000","9.859020000000",0,,0,""
"de:02000:51022::510049","","Nordmeertwiete",,"53.531259000000","9.859097000000",0,,0,""
"de:02000:51021::510050","","Finkenwerder Landscheideweg",,"53.529009000000","9.859609000000",0,,0,""
"de:02000:51023::510056","","AIRBUS (Kehre)",,"53.536942000000","9.847205000000",0,,0,""
"de:02000:51023::510057","","AIRBUS (Kehre)",,"53.536843000000","9.847219000000",0,,0,""
"de:02000:51014::510062","","Finkenwerder (Fähre)",,"53.535330000000","9.878877000000",0,,0,""
"de:02000:51019::520002","","Aluminiumwerk",,"53.517689000000","9.890135000000",0,,0,""
"de:02000:52002::520027","","Dradenaubrücke",,"53.514053000000","9.911179000000",0,,0,"West"
"de:02000:52009::520039","","Zollamt Waltershof",,"53.520065000000","9.926280000000",0,,0,""
"de:02000:52009::520045","","Zollamt Waltershof",,"53.518821000000","9.926841000000",0,,0,""
"de:02000:50015::530001","","Ernastraße",,"53.518712000000","9.983090000000",0,,0,""
"de:02000:50014::530002","","Neuhöfer Straße (Mitte)",,"53.510806000000","9.981837000000",0,,0,""
"de:02000:52010::530003","","Nippoldstraße (Ost)",,"53.514684000000","9.969097000000",0,,0,""
"de:02000:53001::530004","","Neuhöfer Damm",,"53.512776000000","9.969521000000",0,,0,""
"de:02000:53001::530005","","Neuhöfer Damm",,"53.512985000000","9.969285000000",0,,0,""
"de:02000:52010::530007","","Nippoldstraße (Ost)",,"53.515416000000","9.968677000000",0,,0,""
"de:02000:53003::530009","","Röörfeld",,"53.518953000000","9.952324000000",0,,0,""
"de:02000:53005::530011","","Nippoldstraße (West)",,"53.520694000000","9.944628000000",0,,0,""
"de:02000:53019::530012","","Argentinienbrücke (Fähre)",,"53.527975000000","9.974438000000",0,,0,""
"de:02000:53006::530013","","Neuhof (Fähre)",,"53.524614000000","9.942077000000",0,,0,""
"de:02000:53007::530015","","Roßweg/HDW",,"53.523097000000","9.945240000000",0,,0,""
"de:02000:53007::530021","","Roßweg/HDW",,"53.523143000000","9.945180000000",0,,0,""
"de:02000:53006::530023","","Neuhof (Fähre)",,"53.525181000000","9.941908000000",0,,0,""
"de:02000:53005::530025","","Nippoldstraße (West)",,"53.520723000000","9.944357000000",0,,0,""
"de:02000:53000::530026","","Reiherstieg Hauptdeich",,"53.511214000000","9.978183000000",0,,0,""
"de:02000:53003::530027","","Röörfeld",,"53.519092000000","9.951724000000",0,,0,""
"de:02000:53014::530035","","Nehlsstraße",,"53.530153000000","9.969677000000",0,,0,""
"de:02000:53015::530036","","Norderloch",,"53.537605000000","9.967012000000",0,,0,""
"de:02000:53016::530037","","Steinwerder (Alter Elbtunnel)",,"53.541808000000","9.966157000000",0,,0,""
"de:02000:53016::530038","","Steinwerder (Alter Elbtunnel)",,"53.541622000000","9.965821000000",0,,0,""
"de:02000:53015::530039","","Norderloch",,"53.537350000000","9.967504000000",0,,0,""
"de:02000:53014::530040","","Nehlsstraße",,"53.530126000000","9.969586000000",0,,0,""
"de:02000:53018::530046","","Steinwerder (Fähre)",,"53.540405000000","9.966382000000",0,,0,""
"de:02000:53018::530047","","Steinwerder (Fähre)",,"53.539727000000","9.965718000000",0,,0,""
"de:02000:53019::530048","","Argentinienbrücke (Fähre)",,"53.528146000000","9.974381000000",0,,0,""
"de:02000:53020::530053","","Roßkanal",,"53.522034000000","9.947854000000",0,,0,""
"de:02000:53020::530054","","Roßkanal",,"53.522314000000","9.947665000000",0,,0,""
"de:02000:53000::530055","","Reiherstieg Hauptdeich",,"53.511151000000","9.978197000000",0,,0,""
"de:02000:53004::530067","","Hachmannbrücke",,"53.520409000000","9.951135000000",0,,0,""
"de:02000:53004::530068","","Hachmannbrücke",,"53.520456000000","9.950820000000",0,,0,""
"de:02000:50004::540001","","Dratelnstraße",,"53.498428000000","9.999860000000",0,,0,""
"de:02000:50009::540002","","Harburger Chaussee",,"53.520406000000","10.004133000000",0,,0,""
"de:02000:54001::540003","","Kreuzkirche Kirchdorf",,"53.486885000000","10.015453000000",0,,0,""
"de:02000:54002::540004","","Am Papenbrack",,"53.488025000000","10.009197000000",0,,0,""
"de:02000:54003::540005","","Hinter der Dorfkirche",,"53.490433000000","10.008155000000",0,,0,""
"de:02000:54004::540006","","Schwentnerring",,"53.493586000000","10.010354000000",0,,0,""
"de:02000:54005::540014","","Krieterstraße",,"53.496381000000","10.009275000000",0,,0,""
"de:02000:54004::540017","","Schwentnerring",,"53.492828000000","10.009628000000",0,,0,""
"de:02000:54003::540018","","Hinter der Dorfkirche",,"53.490368000000","10.008394000000",0,,0,""
"de:02000:54002::540019","","Am Papenbrack",,"53.488022000000","10.009559000000",0,,0,""
"de:02000:54010::540022","","Neuenfelder Straße (Schule)",,"53.493255000000","10.013375000000",0,,0,""
"de:02000:54006::540025","","S Wilhelmsburg",,"53.497243000000","10.007141000000",0,,1,"B"
"de:02000:54006::540026","","S Wilhelmsburg",,"53.497496000000","10.007042000000",0,,1,"C"
"de:02000:54006::540027","","S Wilhelmsburg",,"53.497565000000","10.007375000000",0,,1,"D"
"de:02000:54006::540029","","S Wilhelmsburg",,"53.497241000000","10.007457000000",0,,1,"A"
"de:02000:54010::540031","","Neuenfelder Straße (Schule)",,"53.493955000000","10.012442000000",0,,0,""
"de:02000:54009::540032","","Aurubis Werk Ost",,"53.515304000000","10.034450000000",0,,0,""
"de:02000:54008::540033","","Siedenfelder Weg (Mitte)",,"53.495073000000","10.020470000000",0,,0,""
"de:02000:54007::540034","","Siedenfelder Weg (West)",,"53.496997000000","10.015016000000",0,,0,""
"de:02000:54007::540037","","Siedenfelder Weg (West)",,"53.496538000000","10.016121000000",0,,0,""
"de:02000:54008::540038","","Siedenfelder Weg (Mitte)",,"53.494954000000","10.020648000000",0,,0,""
"de:02000:54011::540039","","Thielenstraße (Ost)",,"53.500739000000","10.013448000000",0,,0,""
"de:02000:54012::540040","","Im Schönenfelde",,"53.500416000000","10.017675000000",0,,0,""
"de:02000:54013::540041","","Wilhelmsburger Mühle",,"53.499817000000","10.025678000000",0,,0,""
"de:02000:54014::540042","","Niedergeorgswerder Deich (Süd)",,"53.503415000000","10.027348000000",0,,0,""
"de:02000:54015::540043","","Hövelbrook",,"53.507302000000","10.022543000000",0,,0,""
"de:02000:54016::540044","","Rahmwerder Straße",,"53.511600000000","10.021124000000",0,,0,""
"de:02000:54017::540045","","Fiskalische Straße (Energieberg)",,"53.516008000000","10.020521000000",0,,0,""
"de:02000:54018::540050","","S Veddel",,"53.521001000000","10.013464000000",0,,1,"Ankunft"
"de:02000:54018::540051","","S Veddel",,"53.521001000000","10.013464000000",0,,1,"A"
"de:02000:54018::540052","","S Veddel",,"53.520833000000","10.013234000000",0,,1,"B"
"de:02000:54018::540053","","S Veddel",,"53.520568000000","10.013695000000",0,,1,"D"
"de:02000:54019::540060","","Wilhelmsburger Platz",,"53.522863000000","10.016419000000",0,,0,""
"de:02000:54019::540067","","Wilhelmsburger Platz",,"53.522909000000","10.016330000000",0,,0,""
"de:02000:54017::540068","","Fiskalische Straße (Energieberg)",,"53.516180000000","10.020375000000",0,,0,""
"de:02000:54016::540069","","Rahmwerder Straße",,"53.512555000000","10.020906000000",0,,0,""
"de:02000:54015::540070","","Hövelbrook",,"53.507511000000","10.022277000000",0,,0,""
"de:02000:54014::540071","","Niedergeorgswerder Deich (Süd)",,"53.503912000000","10.026983000000",0,,0,""
"de:02000:54013::540072","","Wilhelmsburger Mühle",,"53.499149000000","10.025044000000",0,,0,""
"de:02000:54012::540073","","Im Schönenfelde",,"53.500211000000","10.018469000000",0,,0,""
"de:02000:54011::540074","","Thielenstraße (Ost)",,"53.501161000000","10.013549000000",0,,0,""
"de:02000:54023::540075","","Hovestraße (Kehre)",,"53.516419000000","10.049900000000",0,,0,""
"de:02000:54024::540076","","Hovestraße 68",,"53.517767000000","10.045727000000",0,,0,""
"de:02000:54025::540077","","Hovestraße 49",,"53.519872000000","10.039250000000",0,,0,""
"de:02000:54026::540078","","Aurubis Zentrale",,"53.521803000000","10.033191000000",0,,0,""
"de:02000:54028::540081","","Peutestraße 22",,"53.524033000000","10.036125000000",0,,0,""
"de:02000:54005::540082","","Krieterstraße",,"53.496329000000","10.008958000000",0,,0,""
"de:02000:54034::540087","","Müggenburger Schleuse",,"53.513213000000","10.055820000000",0,,0,""
"de:02000:54033::540088","","Peutestraße 72",,"53.518776000000","10.051586000000",0,,0,""
"de:02000:54032::540089","","Peutestraße 50",,"53.520366000000","10.047585000000",0,,0,""
"de:02000:54031::540090","","Peuter Elbdeich",,"53.521584000000","10.043861000000",0,,0,""
"de:02000:54009::540091","","Aurubis Werk Ost",,"53.515340000000","10.034511000000",0,,0,""
"de:02000:54027::540094","","Hovestraße 44",,"53.522643000000","10.030572000000",0,,0,""
"de:02000:54026::540095","","Aurubis Zentrale",,"53.521637000000","10.033684000000",0,,0,""
"de:02000:54025::540096","","Hovestraße 49",,"53.519866000000","10.038963000000",0,,0,""
"de:02000:54024::540097","","Hovestraße 68",,"53.517465000000","10.046337000000",0,,0,""
"de:02000:54020::540100","","Hovestieg",,"53.525045000000","10.021870000000",0,,0,""
"de:02000:54000::540105","","Oberwerder Damm",,"53.525271000000","10.027017000000",0,,0,""
"de:02000:54020::540108","","Hovestieg",,"53.524453000000","10.021750000000",0,,0,""
"de:02000:54035::540118","","Algermissenstraße",,"53.497480000000","10.012104000000",0,,0,""
"de:02000:54035::540119","","Algermissenstraße",,"53.496876000000","10.011216000000",0,,0,""
"de:02000:54006::540124","","S Wilhelmsburg",,"53.497262000000","10.007051000000",0,,1,"Ankunft"
"de:02000:55029::550000","","Kattwykdamm",,"53.493084000000","9.975641000000",0,,0,""
"de:02000:50001::550001","","Ziegelerstraße",,"53.498393000000","9.991089000000",0,,0,""
"de:02000:54001::550002","","Kreuzkirche Kirchdorf",,"53.486868000000","10.015317000000",0,,0,""
"de:02000:55003::550006","","Weidendamm",,"53.480906000000","10.006317000000",0,,0,""
"de:02000:55004::550012","","Kornweide",,"53.481580000000","9.993333000000",0,,0,""
"de:02000:55024::550015","","Hohe Schaar",,"53.480331000000","9.982534000000",0,,0,""
"de:02000:55024::550026","","Hohe Schaar",,"53.480052000000","9.982617000000",0,,0,""
"de:02000:55003::550030","","Weidendamm",,"53.480851000000","10.006406000000",0,,0,""
"de:02000:55009::550032","","Heuckenlock",,"53.476251000000","10.038831000000",0,,0,""
"de:02000:55000::550033","","Kirchdorfer Straße (Museum Elbinsel)",,"53.491060000000","10.019003000000",0,,0,""
"de:02000:55001::550036","","Friedhof Finkenriek",,"53.474814000000","10.011595000000",0,,0,""
"de:02000:55005::550039","","König-Georg-Deich",,"53.477879000000","9.995385000000",0,,0,""
"de:02000:55030::550041","","Haulander Weg",,"53.488365000000","9.990072000000",0,,0,""
"de:02000:55023::550042","","Trettaustraße",,"53.493967000000","9.990624000000",0,,0,""
"de:02000:55023::550043","","Trettaustraße",,"53.493941000000","9.990503000000",0,,0,""
"de:02000:55030::550044","","Haulander Weg",,"53.488644000000","9.989927000000",0,,0,""
"de:02000:55012::550046","","Am Callabrack",,"53.482761000000","10.010036000000",0,,0,""
"de:02000:55013::550047","","Stübenhofer Weg",,"53.483895000000","10.012007000000",0,,0,""
"de:02000:55014::550052","","Karl-Arnold-Ring",,"53.485665000000","10.017262000000",0,,0,""
"de:02000:55015::550054","","Kirchdorf (Süd)",,"53.484435000000","10.019311000000",0,,0,""
"de:02000:55015::550055","","Kirchdorf (Süd)",,"53.484545000000","10.019012000000",0,,0,""
"de:02000:55014::550058","","Karl-Arnold-Ring",,"53.486787000000","10.018433000000",0,,0,""
"de:02000:55000::550059","","Kirchdorfer Straße (Museum Elbinsel)",,"53.490889000000","10.018984000000",0,,0,""
"de:02000:55014::550062","","Karl-Arnold-Ring",,"53.485837000000","10.016106000000",0,,0,""
"de:02000:55013::550065","","Stübenhofer Weg",,"53.484471000000","10.012894000000",0,,0,""
"de:02000:55012::550066","","Am Callabrack",,"53.482799000000","10.009796000000",0,,0,""
"de:02000:55006::550068","","Freiluftschule Moorwerder",,"53.463549000000","10.061950000000",0,,0,""
"de:02000:55016::550069","","Moorwerder Osterdeich",,"53.467549000000","10.060785000000",0,,0,""
"de:02000:55017::550070","","Moorwerder Mühle",,"53.470461000000","10.060677000000",0,,0,""
"de:02000:55018::550071","","Moorwerder Norderdeich (Ost)",,"53.473230000000","10.060565000000",0,,0,""
"de:02000:55019::550072","","Moorwerder Norderdeich (Fußweg)",,"53.476095000000","10.058709000000",0,,0,""
"de:02000:55020::550073","","Bauernstegel",,"53.479607000000","10.054759000000",0,,0,""
"de:02000:55022::550075","","Goetjensorter Deich",,"53.490622000000","10.047815000000",0,,0,""
"de:02000:55021::550077","","Einlagedeich",,"53.479356000000","10.045534000000",0,,0,""
"de:02000:55009::550078","","Heuckenlock",,"53.476494000000","10.039831000000",0,,0,""
"de:02000:55011::550080","","Stillhorner Hauptdeich",,"53.480270000000","10.026065000000",0,,0,""
"de:02000:55011::550081","","Stillhorner Hauptdeich",,"53.478433000000","10.023445000000",0,,0,""
"de:02000:55008::550092","","Moorwerder Hauptdeich 69",,"53.472619000000","10.046317000000",0,,0,""
"de:02000:55007::550093","","Moorwerder Hauptdeich 35",,"53.465878000000","10.055623000000",0,,0,""
"de:02000:55005::550110","","König-Georg-Deich",,"53.478028000000","9.994771000000",0,,0,""
"de:02000:40012::550111","","Süderelbe (Süd)",,"53.470692000000","9.994163000000",0,,0,""
"de:02000:55033::550115","","Burgweide",,"53.486579000000","10.022782000000",0,,0,""
"de:02000:55034::550116","","Stübenhofer Wettern",,"53.485256000000","10.024106000000",0,,0,""
"de:02000:55035::550117","","Dahlgrünring",,"53.483560000000","10.018627000000",0,,0,""
"de:02000:55013::550118","","Stübenhofer Weg",,"53.483707000000","10.012997000000",0,,0,""
"de:02000:55036::550125","","Auf der Hohen Schaar",,"53.497406000000","9.964574000000",0,,0,""
"de:02000:55037::550126","","Hohe-Schaar-Kamp",,"53.496329000000","9.971105000000",0,,0,""
"de:02000:61016::600001","","Tribünenweg",,"53.559595000000","10.081077000000",0,,0,""
"de:02000:61021::600002","","Caspar-Voght-Straße",,"53.560524000000","10.061541000000",0,,0,""
"de:02000:63001::600003","","Gladowstraße",,"53.579489000000","10.074035000000",0,,0,""
"de:02000:60001::600005","","Am Husarendenkmal",,"53.565142000000","10.077671000000",0,,0,""
"de:02000:60002::600006","","Ziesenißstraße",,"53.567649000000","10.074716000000",0,,0,""
"de:02000:60007:3:600012","","U Wandsbek Markt",,"53.571883000000","10.068544000000",0,,1,"E"
"de:02000:60007:3:600013","","U Wandsbek Markt",,"53.572283000000","10.068976000000",0,,1,"B"
"de:02000:60007:3:600021","","U Wandsbek Markt",,"53.572083000000","10.068262000000",0,,1,"A"
"de:02000:60002::600034","","Ziesenißstraße",,"53.567477000000","10.074817000000",0,,0,""
"de:02000:60001::600035","","Am Husarendenkmal",,"53.564158000000","10.078220000000",0,,0,""
"de:02000:60003::600038","","Bahngärten",,"53.570491000000","10.078411000000",0,,1,"Bahngärten"
"de:02000:60007:1:600039","","U Wandsbek Markt",,"53.571619000000","10.067770000000",0,,1,"G"
"de:02000:60008:2:600040","","Wendemuthstraße",,"53.574325000000","10.073723000000",0,,0,""
"de:02000:60009::600042","","Hogrevestraße",,"53.576796000000","10.072759000000",0,,0,""
"de:02000:60009::600043","","Hogrevestraße",,"53.576939000000","10.072793000000",0,,0,""
"de:02000:60008:2:600044","","Wendemuthstraße",,"53.574965000000","10.074479000000",0,,0,""
"de:02000:60008:1:600045","","Wendemuthstraße",,"53.574988000000","10.075944000000",0,,0,""
"de:02000:60006::600047","","Hammer Straße",,"53.569187000000","10.062483000000",0,,0,""
"de:02000:60005:1:600048","","Bf. Hasselbrook",,"53.565306000000","10.057299000000",0,,0,""
"de:02000:60005:2:600049","","Bf. Hasselbrook",,"53.564523000000","10.057506000000",0,,0,""
"de:02000:60010::600052","","U S Wandsbeker Chaussee",,"53.570031000000","10.058534000000",0,,0,""
"de:02000:60010::600053","","U S Wandsbeker Chaussee",,"53.569923000000","10.058471000000",0,,0,""
"de:02000:63050::600054","","Holzmühlenstraße",,"53.576607000000","10.081707000000",0,,0,""
"de:02000:60024::600055","","U Alter Teichweg",,"53.586129000000","10.064962000000",0,,0,""
"de:02000:60026::600057","","Schön Klinik Eilbek",,"53.578671000000","10.049842000000",0,,0,""
"de:02000:60027::600058","","Gluckstraße",,"53.571593000000","10.039205000000",0,,0,""
"de:02000:60015:3:600060","","U Wartenau",,"53.564511000000","10.034232000000",0,,1,""
"de:02000:60015:4:600061","","U Wartenau",,"53.562965000000","10.033258000000",0,,1,""
"de:02000:60012::600064","","U Ritterstraße",,"53.567221000000","10.043958000000",0,,0,""
"de:02000:60012::600065","","U Ritterstraße",,"53.567165000000","10.044214000000",0,,0,""
"de:02000:60011::600068","","Fichtestraße",,"53.568520000000","10.051492000000",0,,0,""
"de:02000:60013:2:600069","","Wagnerstraße",,"53.570131000000","10.039924000000",0,,0,"in Straße Eilenau"
"de:02000:60016:2:600074","","Maxstraße",,"53.572144000000","10.047129000000",0,,0,"in Straße Eilbektal"
"de:02000:60016:1:600075","","Maxstraße",,"53.571006000000","10.048837000000",0,,0,"im Eilbeker WEG"
"de:02000:60017:2:600077","","Seumestraße",,"53.573599000000","10.052283000000",0,,0,"in Straße Eilbektal"
"de:02000:60017:1:600078","","Seumestraße",,"53.573002000000","10.054744000000",0,,0,"im Eilbeker Weg"
"de:02000:60018:1:600080","","S Friedrichsberg",,"53.575759000000","10.058058000000",0,,1,""
"de:02000:60018:2:600081","","S Friedrichsberg",,"53.576518000000","10.058575000000",0,,1,""
"de:02000:60018:2:600082","","S Friedrichsberg",,"53.576712000000","10.058927000000",0,,1,""
"de:02000:60019::600085","","Krausestraße",,"53.580084000000","10.057683000000",0,,0,""
"de:02000:60019::600086","","Krausestraße",,"53.580387000000","10.058008000000",0,,0,""
"de:02000:60020::600088","","Straßburger Platz",,"53.581107000000","10.061846000000",0,,0,""
"de:02000:60020::600089","","Straßburger Platz",,"53.580935000000","10.062038000000",0,,0,""
"de:02000:60021::600090","","U Straßburger Straße",,"53.582253000000","10.066435000000",0,,0,""
"de:02000:60021::600095","","U Straßburger Straße",,"53.582458000000","10.068599000000",0,,0,""
"de:02000:60021::600096","","U Straßburger Straße",,"53.581835000000","10.067889000000",0,,0,""
"de:02000:63023::600099","","Eulenkamp",,"53.583464000000","10.072611000000",0,,0,""
"de:02000:60021::600100","","U Straßburger Straße",,"53.582918000000","10.067433000000",0,,0,""
"de:02000:60011::600102","","Fichtestraße",,"53.568540000000","10.052338000000",0,,0,""
"de:02000:63059::600103","","Kedenburgstraße",,"53.575053000000","10.087646000000",0,,0,""
"de:02000:60014::600104","","Josephstraße",,"53.573005000000","10.080589000000",0,,0,""
"de:02000:60014::600106","","Josephstraße",,"53.572676000000","10.078270000000",0,,0,""
"de:02000:70071::600114","","Lämmersieth (Mitte)",,"53.584206000000","10.053845000000",0,,0,""
"de:02000:60025::600115","","Wandsbeker Allee",,"53.579970000000","10.069457000000",0,,0,""
"de:02000:60025::600118","","Wandsbeker Allee",,"53.578935000000","10.069703000000",0,,0,""
"de:02000:60007:2:600125","","U Wandsbek Markt",,"53.571668000000","10.069444000000",0,,1,"H"
"de:02000:60007:3:600126","","U Wandsbek Markt",,"53.572345000000","10.069084000000",0,,1,"C"
"de:02000:60007:3:600127","","U Wandsbek Markt",,"53.572249000000","10.069806000000",0,,1,"D"
"de:02000:10010::610007","","Hübbesweg",,"53.554447000000","10.061932000000",0,,0,""
"de:02000:10008::610008","","Beim Hammer Marktplatz",,"53.557124000000","10.053820000000",0,,0,""
"de:02000:10007::610009","","Saling",,"53.558855000000","10.048083000000",0,,0,""
"de:02000:61039::610016","","Feuerwehrakademie Hamburg",,"53.526604000000","10.079602000000",0,,0,""
"de:02000:61040::610017","","Bredowstraße (Mitte)",,"53.524770000000","10.082737000000",0,,0,""
"de:02000:61041::610019","","Moorfleeter Straße (Süd)",,"53.523320000000","10.089953000000",0,,0,""
"de:02000:61001::610021","","Pinkertweg (Mitte)",,"53.527073000000","10.093262000000",0,,0,""
"de:02000:61003::610025","","Liebigstraße (Mitte)",,"53.532764000000","10.094856000000",0,,0,""
"de:02000:61034::610026","","Liebigstraße 30",,"53.534131000000","10.086837000000",0,,0,""
"de:02000:61032::610029","","Wöhlerstraße",,"53.535703000000","10.083017000000",0,,0,""
"de:02000:61034::610033","","Liebigstraße 30",,"53.534143000000","10.086491000000",0,,0,""
"de:02000:61003::610034","","Liebigstraße (Mitte)",,"53.532135000000","10.095881000000",0,,0,""
"de:02000:61038::610042","","Grusonstraße",,"53.531567000000","10.080287000000",0,,0,""
"de:02000:61035::610048","","Moorfleeter Straße (Mitte)",,"53.529327000000","10.094375000000",0,,0,""
"de:02000:61001::610049","","Pinkertweg (Mitte)",,"53.525215000000","10.092023000000",0,,0,""
"de:02000:61041::610050","","Moorfleeter Straße (Süd)",,"53.522699000000","10.088143000000",0,,0,""
"de:02000:61040::610051","","Bredowstraße (Mitte)",,"53.524640000000","10.083141000000",0,,0,""
"de:02000:61039::610052","","Feuerwehrakademie Hamburg",,"53.527473000000","10.078946000000",0,,0,""
"de:02000:61038::610059","","Grusonstraße",,"53.532101000000","10.079818000000",0,,0,""
"de:02000:61044::610060","","Borsigstraße (Mitte)",,"53.533345000000","10.074390000000",0,,0,""
"de:02000:61044::610061","","Borsigstraße (Mitte)",,"53.533403000000","10.073924000000",0,,0,""
"de:02000:61006::610076","","Billstedter Hauptstraße",,"53.540854000000","10.101371000000",0,,0,""
"de:02000:61008::610079","","U Billstedt",,"53.542065000000","10.107451000000",0,,1,"Ankunft"
"de:02000:61008::610082","","U Billstedt",,"53.542203000000","10.107108000000",0,,1,"C"
"de:02000:61007::610086","","Schiffbeker Höhe",,"53.547914000000","10.107498000000",0,,0,""
"de:02000:61007::610088","","Schiffbeker Höhe",,"53.547861000000","10.106471000000",0,,0,""
"de:02000:61009::610090","","Querkamp",,"53.551332000000","10.094446000000",0,,0,""
"de:02000:61007::610092","","Schiffbeker Höhe",,"53.547400000000","10.107757000000",0,,0,""
"de:02000:61024::610093","","U Rauhes Haus",,"53.554057000000","10.065348000000",0,,0,""
"de:02000:61025::610094","","Culinstraße",,"53.552010000000","10.073233000000",0,,0,""
"de:02000:61026::610095","","Bauerberg",,"53.550457000000","10.077962000000",0,,0,""
"de:02000:61027::610098","","Horner Rampe",,"53.547357000000","10.085004000000",0,,0,""
"de:02000:61028::610099","","Horner Brückenweg",,"53.545179000000","10.089323000000",0,,0,""
"de:02000:61029::610100","","Washingtonallee",,"53.542647000000","10.095021000000",0,,0,""
"de:02000:61006::610103","","Billstedter Hauptstraße",,"53.540695000000","10.100129000000",0,,0,""
"de:02000:61029::610111","","Washingtonallee",,"53.542120000000","10.096591000000",0,,0,""
"de:02000:61028::610114","","Horner Brückenweg",,"53.545491000000","10.088592000000",0,,0,""
"de:02000:61027::610115","","Horner Rampe",,"53.547623000000","10.084392000000",0,,0,""
"de:02000:61026::610117","","Bauerberg",,"53.549868000000","10.079516000000",0,,0,""
"de:02000:61025::610118","","Culinstraße",,"53.551983000000","10.073142000000",0,,0,""
"de:02000:61024::610119","","U Rauhes Haus",,"53.553827000000","10.065930000000",0,,0,""
"de:02000:61030::610120","","Eekholtesweg",,"53.540693000000","10.083672000000",0,,0,""
"de:02000:61031::610121","","Blaue Brücke",,"53.538294000000","10.083596000000",0,,0,""
"de:02000:61027::610122","","Horner Rampe",,"53.547786000000","10.085271000000",0,,0,""
"de:02000:61031::610123","","Blaue Brücke",,"53.539199000000","10.083935000000",0,,0,""
"de:02000:61030::610124","","Eekholtesweg",,"53.542057000000","10.083782000000",0,,0,""
"de:02000:61027::610125","","Horner Rampe",,"53.547803000000","10.085347000000",0,,0,""
"de:02000:61017::610128","","U Horner Rennbahn",,"53.554504000000","10.084583000000",0,,1,""
"de:02000:61016::610130","","Tribünenweg",,"53.559470000000","10.080983000000",0,,0,""
"de:02000:61017::610132","","U Horner Rennbahn",,"53.554016000000","10.083847000000",0,,1,"Zugang Am Gojenboom"
"de:02000:61017::610139","","U Horner Rennbahn",,"53.554713000000","10.085313000000",0,,1,"Zugang Hermannstal"
"de:02000:61013::610146","","Dannerallee",,"53.559890000000","10.108687000000",0,,0,""
"de:02000:61045::610153","","Spliedtring",,"53.562540000000","10.108696000000",0,,0,""
"de:02000:61014::610156","","Böcklerstraße",,"53.563628000000","10.107653000000",0,,0,""
"de:02000:61014::610157","","Böcklerstraße",,"53.563476000000","10.107649000000",0,,0,""
"de:02000:61045::610159","","Spliedtring",,"53.562631000000","10.108577000000",0,,0,""
"de:02000:61032::610163","","Wöhlerstraße",,"53.535392000000","10.081576000000",0,,0,""
"de:02000:61022::610164","","Sievekingdamm",,"53.560563000000","10.052080000000",0,,0,""
"de:02000:61021::610165","","Caspar-Voght-Straße",,"53.560379000000","10.061673000000",0,,0,""
"de:02000:61020::610166","","Horner Kreisel",,"53.559643000000","10.067722000000",0,,0,""
"de:02000:61019::610167","","Rhiemsweg",,"53.558061000000","10.074775000000",0,,0,""
"de:02000:61018::610169","","O'Swaldstraße",,"53.556443000000","10.079804000000",0,,0,""
"de:02000:61018::610170","","O'Swaldstraße",,"53.556301000000","10.079680000000",0,,0,""
"de:02000:61019::610171","","Rhiemsweg",,"53.557603000000","10.075729000000",0,,0,""
"de:02000:61020::610173","","Horner Kreisel",,"53.558740000000","10.069148000000",0,,0,""
"de:02000:61021::610174","","Caspar-Voght-Straße",,"53.560114000000","10.062195000000",0,,0,""
"de:02000:61065::610175","","Hammer Steindamm",,"53.560774000000","10.055692000000",0,,0,""
"de:02000:61023::610176","","Am Elisabethgehölz",,"53.557196000000","10.061941000000",0,,0,""
"de:02000:61023::610179","","Am Elisabethgehölz",,"53.557465000000","10.062053000000",0,,0,""
"de:02000:61021::610180","","Caspar-Voght-Straße",,"53.560905000000","10.061143000000",0,,0,""
"de:02000:61046::610183","","Öjendorfer Weg",,"53.545614000000","10.114212000000",0,,0,""
"de:02000:61046::610184","","Öjendorfer Weg",,"53.545561000000","10.114181000000",0,,0,""
"de:02000:61007::610185","","Schiffbeker Höhe",,"53.547345000000","10.106865000000",0,,0,""
"de:02000:61062::610190","","Mühlenhagen",,"53.536633000000","10.067519000000",0,,0,""
"de:02000:61061::610191","","Billbrookdeich",,"53.535847000000","10.076972000000",0,,0,""
"de:02000:61062::610192","","Mühlenhagen",,"53.536616000000","10.067414000000",0,,0,""
"de:02000:61061::610193","","Billbrookdeich",,"53.535851000000","10.077485000000",0,,0,""
"de:02000:61050::610196","","Meriandamm",,"53.552309000000","10.111295000000",0,,0,""
"de:02000:61050::610197","","Meriandamm",,"53.552058000000","10.111168000000",0,,0,""
"de:02000:61051::610198","","Prinzenweg",,"53.554751000000","10.113426000000",0,,0,""
"de:02000:61051::610199","","Prinzenweg",,"53.554705000000","10.113516000000",0,,0,""
"de:02000:61052::610200","","Manshardtstraße",,"53.557887000000","10.116316000000",0,,0,""
"de:02000:61052::610201","","Manshardtstraße",,"53.557182000000","10.116720000000",0,,0,""
"de:02000:61052::610202","","Manshardtstraße",,"53.557135000000","10.116945000000",0,,0,""
"de:02000:61052::610203","","Manshardtstraße",,"53.556908000000","10.115339000000",0,,0,""
"de:02000:61053::610204","","Fuchsbergredder",,"53.560143000000","10.118186000000",0,,0,""
"de:02000:61053::610205","","Fuchsbergredder",,"53.560747000000","10.118866000000",0,,0,""
"de:02000:61064::610206","","Aschenputtelstraße",,"53.562127000000","10.119355000000",0,,0,""
"de:02000:61064::610207","","Aschenputtelstraße",,"53.563071000000","10.120225000000",0,,0,""
"de:02000:62035::610208","","Rübezahlstraße",,"53.563851000000","10.120382000000",0,,0,""
"de:02000:61055::610209","","Friedhof Öjendorf (Haupteingang)",,"53.557340000000","10.121975000000",0,,0,""
"de:02000:61055::610210","","Friedhof Öjendorf (Haupteingang)",,"53.557545000000","10.122086000000",0,,0,""
"de:02000:61056::610214","","Friedhof Öjendorf (Feierhallen)",,"53.556884000000","10.126430000000",0,,0,""
"de:02000:61057::610216","","Friedhof Öjendorf (Süd-Ring)",,"53.554236000000","10.123357000000",0,,0,""
"de:02000:61058::610217","","Friedhof Öjendorf (Ost-Ring)",,"53.555029000000","10.131647000000",0,,0,""
"de:02000:61069::610218","","Kattensteert",,"53.549800000000","10.099868000000",0,,0,""
"de:02000:61059::610219","","Friedhof Öjendorf (Nord-Ring)",,"53.559121000000","10.125539000000",0,,0,""
"de:02000:61069::610228","","Kattensteert",,"53.549896000000","10.099191000000",0,,0,""
"de:02000:61010::610229","","Sandkamp",,"53.553678000000","10.090447000000",0,,0,""
"de:01062:64011::620001","","Barsbüttel, Zum Dicken Busch",,"53.569572000000","10.152837000000",0,,0,""
"de:02000:64028::620002","","Kinderkrankenhaus Wilhelmstift",,"53.588948000000","10.159904000000",0,,0,""
"de:02000:60004:1:620004","","Gustav-Adolf-Straße",,"53.570456000000","10.083256000000",0,,0,""
"de:02000:62015::620005","","Bovestraße",,"53.569165000000","10.084974000000",0,,0,""
"de:02000:62016::620006","","AK Wandsbek",,"53.568655000000","10.091633000000",0,,0,""
"de:02000:62017::620007","","Osterkamp",,"53.569663000000","10.100218000000",0,,0,""
"de:02000:62011:1:620010","","Universität der Bundeswehr",,"53.570152000000","10.105649000000",0,,0,""
"de:02000:62011:2:620012","","Universität der Bundeswehr",,"53.570560000000","10.106219000000",0,,0,""
"de:02000:62010::620013","","Am Hohen Feld",,"53.571007000000","10.116133000000",0,,0,""
"de:02000:62009:1:620016","","Schiffbeker Weg",,"53.570980000000","10.125748000000",0,,0,""
"de:02000:62008::620017","","Denksteinweg",,"53.571072000000","10.131215000000",0,,0,""
"de:02000:62013::620022","","Gleiwitzer Bogen",,"53.570484000000","10.141072000000",0,,0,""
"de:02000:62014::620023","","Holsteiner Tor",,"53.569784000000","10.149507000000",0,,0,""
"de:02000:62014::620026","","Holsteiner Tor",,"53.569867000000","10.148271000000",0,,0,""
"de:02000:62013::620027","","Gleiwitzer Bogen",,"53.570681000000","10.140247000000",0,,0,""
"de:02000:62007:1:620028","","Jenfeld-Zentrum",,"53.571474000000","10.136238000000",0,,0,""
"de:02000:62006::620029","","Jenfelder Straße",,"53.573999000000","10.135234000000",0,,0,""
"de:02000:62005::620032","","Schweidnitzer Straße",,"53.576790000000","10.135656000000",0,,0,""
"de:02000:62004::620033","","Liegnitzer Straße",,"53.580194000000","10.137725000000",0,,0,""
"de:02000:62003::620036","","Berliner Platz",,"53.583971000000","10.141149000000",0,,1,""
"de:02000:62002::620037","","Potsdamer Straße",,"53.586122000000","10.149271000000",0,,0,""
"de:02000:62001::620038","","Hüllenkamp",,"53.587535000000","10.154564000000",0,,0,""
"de:02000:62001::620039","","Hüllenkamp",,"53.587832000000","10.155509000000",0,,0,""
"de:02000:62002::620040","","Potsdamer Straße",,"53.585727000000","10.148263000000",0,,0,""
"de:02000:62003::620043","","Berliner Platz",,"53.584030000000","10.140592000000",0,,0,""
"de:02000:62009:3:620044","","Schiffbeker Weg",,"53.570231000000","10.124174000000",0,,0,""
"de:02000:62003::620047","","Berliner Platz",,"53.583315000000","10.141146000000",0,,0,""
"de:02000:62004::620048","","Liegnitzer Straße",,"53.579980000000","10.137523000000",0,,0,""
"de:02000:62005::620049","","Schweidnitzer Straße",,"53.577236000000","10.136030000000",0,,0,""
"de:02000:62006::620050","","Jenfelder Straße",,"53.574136000000","10.135011000000",0,,0,""
"de:02000:62007:2:620052","","Jenfeld-Zentrum",,"53.571169000000","10.134328000000",0,,0,""
"de:02000:62008::620053","","Denksteinweg",,"53.571129000000","10.130930000000",0,,0,""
"de:02000:62009:2:620055","","Schiffbeker Weg",,"53.571687000000","10.125103000000",0,,0,""
"de:02000:62009:4:620057","","Schiffbeker Weg",,"53.571083000000","10.123396000000",0,,0,""
"de:02000:62010::620058","","Am Hohen Feld",,"53.571070000000","10.116150000000",0,,0,""
"de:02000:62011:2:620062","","Universität der Bundeswehr",,"53.570406000000","10.104464000000",0,,0,""
"de:02000:62017::620063","","Osterkamp",,"53.569676000000","10.099871000000",0,,0,""
"de:02000:62016::620064","","AK Wandsbek",,"53.568734000000","10.090865000000",0,,0,""
"de:02000:62015::620065","","Bovestraße",,"53.568886000000","10.086959000000",0,,0,""
"de:02000:62039::620066","","Friedhof Tonndorf",,"53.583204000000","10.114794000000",0,,0,""
"de:02000:62020::620067","","Jenfelder Allee",,"53.574807000000","10.126816000000",0,,0,""
"de:02000:62020::620068","","Jenfelder Allee",,"53.574672000000","10.126828000000",0,,0,""
"de:02000:62019::620072","","Bekkamp",,"53.575906000000","10.143558000000",0,,0,""
"de:02000:62019::620073","","Bekkamp",,"53.576256000000","10.143553000000",0,,0,""
"de:02000:62018::620074","","Glatzer Straße",,"53.579585000000","10.145016000000",0,,0,""
"de:02000:62018::620075","","Glatzer Straße",,"53.579715000000","10.144627000000",0,,0,""
"de:02000:62023::620077","","Schimmelmannstraße (Mitte)",,"53.573280000000","10.104584000000",0,,0,""
"de:02000:62035::620082","","Rübezahlstraße",,"53.564644000000","10.121157000000",0,,0,""
"de:02000:62024::620084","","Am Jenfelder Moor",,"53.576280000000","10.113449000000",0,,0,""
"de:02000:62025::620085","","Albert-Schweitzer-Ring",,"53.579424000000","10.123104000000",0,,0,""
"de:02000:62027::620089","","Köpenicker Straße",,"53.584474000000","10.133552000000",0,,0,""
"de:02000:62024::620090","","Am Jenfelder Moor",,"53.576806000000","10.114852000000",0,,0,""
"de:02000:62025::620091","","Albert-Schweitzer-Ring",,"53.579417000000","10.122938000000",0,,0,""
"de:02000:62026::620093","","Kuehnstraße",,"53.582210000000","10.126923000000",0,,0,""
"de:02000:62027::620094","","Köpenicker Straße",,"53.584404000000","10.132462000000",0,,0,""
"de:02000:62029::620099","","Wilsonstraße",,"53.588176000000","10.129845000000",0,,0,""
"de:02000:62029::620100","","Wilsonstraße",,"53.587752000000","10.129018000000",0,,0,""
"de:02000:62031::620109","","Loher Straße",,"53.594052000000","10.145015000000",0,,0,""
"de:02000:62031::620110","","Loher Straße",,"53.593963000000","10.144937000000",0,,0,""
"de:02000:62032::620111","","Brockdorffstraße",,"53.596977000000","10.152919000000",0,,0,""
"de:02000:62032::620112","","Brockdorffstraße",,"53.596406000000","10.152495000000",0,,0,""
"de:02000:62033::620113","","Wilhelm-Grimm-Straße",,"53.600404000000","10.156215000000",0,,0,""
"de:02000:62036::620114","","Paracelsusstraße",,"53.597745000000","10.131762000000",0,,0,""
"de:02000:62038::620119","","Stemmeshay",,"53.591521000000","10.130478000000",0,,0,""
"de:02000:62038::620120","","Stemmeshay",,"53.591992000000","10.131080000000",0,,0,""
"de:02000:62039::620121","","Friedhof Tonndorf",,"53.582929000000","10.113473000000",0,,0,""
"de:02000:63050::630000","","Holzmühlenstraße",,"53.576886000000","10.083647000000",0,,0,""
"de:02000:63001::630001","","Gladowstraße",,"53.579412000000","10.075634000000",0,,0,""
"de:02000:63002:1:630002","","Walddörferstraße",,"53.580405000000","10.081049000000",0,,0,""
"de:02000:63003:3:630003","","Friedrich-Ebert-Damm (West)",,"53.584939000000","10.079489000000",0,,0,""
"de:02000:63003:4:630004","","Friedrich-Ebert-Damm (West)",,"53.585498000000","10.078220000000",0,,0,""
"de:02000:63004::630006","","Tilsiter Straße",,"53.589967000000","10.077926000000",0,,0,""
"de:02000:63005:1:630007","","U Wandsbek-Gartenstadt",,"53.592304000000","10.075795000000",0,,0,""
"de:02000:63006::630008","","Haldesdorfer Straße",,"53.596630000000","10.072355000000",0,,0,""
"de:02000:63007::630010","","Werner-Otto-Straße",,"53.602361000000","10.069555000000",0,,0,""
"de:02000:63008::630011","","Rahnstraße",,"53.606120000000","10.071206000000",0,,0,""
"de:02000:63009:2:630013","","Steilshooper Allee",,"53.609257000000","10.073114000000",0,,0,""
"de:02000:63010::630022","","Bramfelder Dorfplatz",,"53.615050000000","10.076359000000",0,,0,""
"de:02000:63009:1:630026","","Steilshooper Allee",,"53.608144000000","10.072013000000",0,,0,""
"de:02000:63000::630027","","Werner-Otto-Straße (Mitte)",,"53.600014000000","10.069813000000",0,,0,""
"de:02000:63008::630028","","Rahnstraße",,"53.604824000000","10.070493000000",0,,0,""
"de:02000:63007::630030","","Werner-Otto-Straße",,"53.600693000000","10.068153000000",0,,0,""
"de:02000:63007::630031","","Werner-Otto-Straße",,"53.599906000000","10.069765000000",0,,0,""
"de:02000:63006::630032","","Haldesdorfer Straße",,"53.596921000000","10.072015000000",0,,0,""
"de:02000:63005:1:630033","","U Wandsbek-Gartenstadt",,"53.592187000000","10.075807000000",0,,0,""
"de:02000:63005:2:630036","","U Wandsbek-Gartenstadt",,"53.591859000000","10.075529000000",0,,0,""
"de:02000:63005:2:630037","","U Wandsbek-Gartenstadt",,"53.591583000000","10.075235000000",0,,0,""
"de:02000:63004::630038","","Tilsiter Straße",,"53.588766000000","10.078529000000",0,,0,""
"de:02000:63003:1:630040","","Friedrich-Ebert-Damm (West)",,"53.585048000000","10.078374000000",0,,0,""
"de:02000:63003:2:630041","","Friedrich-Ebert-Damm (West)",,"53.584703000000","10.077731000000",0,,0,""
"de:02000:63002:1:630042","","Walddörferstraße",,"53.579811000000","10.081215000000",0,,0,""
"de:02000:62036::630045","","Paracelsusstraße",,"53.597609000000","10.131940000000",0,,0,""
"de:02000:63033::630048","","Rahlstedter Weg (Mitte)",,"53.602834000000","10.127668000000",0,,0,""
"de:02000:63034:1:630050","","U Farmsen",,"53.607197000000","10.117481000000",0,,1,""
"de:02000:63034:1:630051","","U Farmsen",,"53.607436000000","10.116928000000",0,,1,""
"de:02000:63035::630052","","Berufsförderungswerk Hamburg",,"53.612167000000","10.115451000000",0,,0,""
"de:02000:63036::630053","","Pflegezentrum Farmsen",,"53.614006000000","10.114865000000",0,,0,""
"de:02000:63037::630055","","Neusurenland",,"53.617003000000","10.113342000000",0,,0,""
"de:02000:63038::630056","","Stuhtsweg",,"53.619778000000","10.112554000000",0,,0,""
"de:02000:63058:3:630057","","Karlshöhe",,"53.623052000000","10.111249000000",0,,0,""
"de:02000:63038::630058","","Stuhtsweg",,"53.619545000000","10.112517000000",0,,0,""
"de:02000:63037::630060","","Neusurenland",,"53.616010000000","10.113815000000",0,,0,""
"de:02000:63036::630061","","Pflegezentrum Farmsen",,"53.613412000000","10.114955000000",0,,0,""
"de:02000:63035::630062","","Berufsförderungswerk Hamburg",,"53.611375000000","10.115627000000",0,,0,""
"de:02000:63034:2:630064","","U Farmsen",,"53.606683000000","10.118676000000",0,,1,""
"de:02000:63032::630067","","Eissporthalle",,"53.604267000000","10.119533000000",0,,0,""
"de:02000:63031::630068","","Eckerkoppel",,"53.600627000000","10.118247000000",0,,0,""
"de:02000:63029::630070","","Ebeersreye",,"53.595426000000","10.115569000000",0,,0,""
"de:02000:63028::630072","","Rentenversicherung Nord",,"53.592088000000","10.108352000000",0,,0,""
"de:02000:63027::630073","","Sylter Weg",,"53.590261000000","10.104755000000",0,,0,""
"de:02000:63026::630074","","Am Stadtrand",,"53.588823000000","10.097952000000",0,,0,""
"de:02000:63025::630075","","Helbingtwiete",,"53.587782000000","10.092941000000",0,,0,""
"de:02000:63024::630076","","Stephanstraße",,"53.586673000000","10.087401000000",0,,0,""
"de:02000:63024::630077","","Stephanstraße",,"53.586360000000","10.086230000000",0,,0,""
"de:02000:63025::630078","","Helbingtwiete",,"53.587772000000","10.093092000000",0,,0,""
"de:02000:63026::630079","","Am Stadtrand",,"53.589077000000","10.099635000000",0,,0,""
"de:02000:63027::630080","","Sylter Weg",,"53.590240000000","10.105087000000",0,,0,""
"de:02000:63028::630081","","Rentenversicherung Nord",,"53.592155000000","10.108822000000",0,,0,""
"de:02000:63029::630083","","Ebeersreye",,"53.595067000000","10.114608000000",0,,0,""
"de:02000:63031::630085","","Eckerkoppel",,"53.600411000000","10.118257000000",0,,0,""
"de:02000:63032::630086","","Eissporthalle",,"53.603985000000","10.119828000000",0,,0,""
"de:02000:63033::630088","","Rahlstedter Weg (Mitte)",,"53.602537000000","10.127706000000",0,,0,""
"de:02000:63047::630091","","Scharbeutzer Straße",,"53.599822000000","10.131636000000",0,,0,""
"de:02000:63049::630092","","Boltenhagener Straße",,"53.600091000000","10.136387000000",0,,0,""
"de:02000:63047::630093","","Scharbeutzer Straße",,"53.599883000000","10.131834000000",0,,0,""
"de:02000:63046::630094","","Timmendorfer Straße",,"53.603969000000","10.131158000000",0,,0,""
"de:02000:63048::630097","","Kohövedstraße",,"53.608794000000","10.144326000000",0,,0,""
"de:02000:63045:1:630098","","Alter Zollweg",,"53.608323000000","10.137197000000",0,,0,""
"de:02000:63045:3:630100","","Alter Zollweg",,"53.607486000000","10.136389000000",0,,0,""
"de:02000:63046::630101","","Timmendorfer Straße",,"53.604568000000","10.131491000000",0,,0,""
"de:02000:63044::630104","","Treptower Straße",,"53.613419000000","10.136171000000",0,,0,""
"de:02000:63044::630105","","Treptower Straße",,"53.614084000000","10.136158000000",0,,0,""
"de:02000:63043::630106","","Greifenberger Straße",,"53.616722000000","10.135579000000",0,,0,""
"de:02000:63043::630107","","Greifenberger Straße",,"53.617415000000","10.135507000000",0,,0,""
"de:02000:63042::630108","","Zamenhofweg",,"53.622155000000","10.134033000000",0,,0,""
"de:02000:63042::630109","","Zamenhofweg",,"53.622623000000","10.133970000000",0,,0,""
"de:02000:63041:1:630114","","Busbrookhöhe",,"53.623509000000","10.131499000000",0,,0,""
"de:02000:63040:2:630115","","Berner Heerweg",,"53.618782000000","10.124859000000",0,,0,""
"de:02000:63040:1:630118","","Berner Heerweg",,"53.618615000000","10.126381000000",0,,0,""
"de:02000:63041:2:630120","","Busbrookhöhe",,"53.621930000000","10.130309000000",0,,0,""
"de:02000:63039::630121","","Hermelinweg",,"53.616159000000","10.121964000000",0,,0,""
"de:02000:63039::630122","","Hermelinweg",,"53.616183000000","10.122206000000",0,,0,""
"de:02000:63037::630123","","Neusurenland",,"53.616343000000","10.114715000000",0,,0,""
"de:02000:63060::630124","","Tegelweg",,"53.605812000000","10.105992000000",0,,0,""
"de:02000:63060::630125","","Tegelweg",,"53.606015000000","10.107387000000",0,,0,""
"de:02000:63061::630126","","Haldesdorfer Straße (Nord)",,"53.607389000000","10.089837000000",0,,0,""
"de:02000:63061::630127","","Haldesdorfer Straße (Nord)",,"53.607306000000","10.090122000000",0,,0,""
"de:02000:63059::630128","","Kedenburgstraße",,"53.574981000000","10.087689000000",0,,0,""
"de:02000:63012::630129","","Heukoppel",,"53.611321000000","10.080404000000",0,,0,""
"de:02000:63011:1:630130","","Berner Chaussee",,"53.618641000000","10.079699000000",0,,0,""
"de:02000:63014::630134","","Ellernreihe",,"53.605506000000","10.080304000000",0,,0,""
"de:02000:63014::630135","","Ellernreihe",,"53.606632000000","10.081013000000",0,,0,""
"de:02000:63015::630136","","Karl-Müller-Ring",,"53.602981000000","10.078214000000",0,,0,""
"de:02000:63015::630137","","Karl-Müller-Ring",,"53.602935000000","10.078319000000",0,,0,""
"de:02000:63016::630138","","Hegholt",,"53.601372000000","10.081256000000",0,,0,""
"de:02000:63016::630139","","Hegholt",,"53.601029000000","10.080386000000",0,,0,""
"de:02000:63017::630140","","Carl-Bremer-Ring",,"53.603040000000","10.084654000000",0,,0,""
"de:02000:63017::630141","","Carl-Bremer-Ring",,"53.602988000000","10.084396000000",0,,0,""
"de:02000:63018::630142","","Turnierstieg",,"53.599400000000","10.091512000000",0,,0,""
"de:02000:63018::630143","","Turnierstieg",,"53.600166000000","10.091245000000",0,,0,""
"de:02000:63019::630144","","Barmwisch",,"53.596863000000","10.091734000000",0,,0,""
"de:02000:63019::630145","","Barmwisch",,"53.597086000000","10.091861000000",0,,0,""
"de:02000:63020::630146","","Voßkulen",,"53.594850000000","10.085729000000",0,,0,""
"de:02000:63021::630149","","Rauschener Ring",,"53.594388000000","10.081199000000",0,,0,""
"de:02000:63023::630151","","Eulenkamp",,"53.583276000000","10.072516000000",0,,0,""
"de:02000:63063::630154","","Swebenhöhe",,"53.609678000000","10.108677000000",0,,0,""
"de:02000:63064::630155","","Rönkkoppel",,"53.613563000000","10.107404000000",0,,0,""
"de:02000:63051::630157","","Eichtalstraße",,"53.577939000000","10.089411000000",0,,0,""
"de:02000:63051::630158","","Eichtalstraße",,"53.577978000000","10.089034000000",0,,0,""
"de:02000:63052::630159","","Kurfürstenstraße",,"53.579133000000","10.097368000000",0,,0,""
"de:02000:63052::630160","","Kurfürstenstraße",,"53.578814000000","10.094975000000",0,,0,""
"de:02000:63053::630161","","Ölmühlenweg (Süd)",,"53.579924000000","10.101284000000",0,,0,""
"de:02000:63054::630165","","Birtstraße",,"53.575481000000","10.090544000000",0,,0,""
"de:02000:63054::630166","","Birtstraße",,"53.575367000000","10.092621000000",0,,0,""
"de:02000:63055::630167","","Ziethenstraße",,"53.576628000000","10.101138000000",0,,0,""
"de:02000:63055::630168","","Ziethenstraße",,"53.576802000000","10.102698000000",0,,0,""
"de:02000:63053::630169","","Ölmühlenweg (Süd)",,"53.580176000000","10.103239000000",0,,0,""
"de:02000:63030::630171","","Pulverhofsweg",,"53.598694000000","10.124476000000",0,,0,""
"de:02000:63030::630172","","Pulverhofsweg",,"53.598467000000","10.123851000000",0,,0,""
"de:02000:63056::630173","","Heinrich-Helbing-Straße",,"53.594740000000","10.060647000000",0,,0,""
"de:02000:63057::630174","","Bauernrosenweg",,"53.598197000000","10.065975000000",0,,0,""
"de:02000:63057::630175","","Bauernrosenweg",,"53.598290000000","10.065600000000",0,,0,""
"de:02000:70059:1:630176","","Fabriciusstraße",,"53.608546000000","10.068216000000",0,,0,""
"de:02000:63013:4:630177","","Ellernreihe (Mitte)",,"53.608851000000","10.080326000000",0,,0,""
"de:02000:63009:4:630186","","Steilshooper Allee",,"53.608699000000","10.074172000000",0,,0,""
"de:02000:63013:3:630187","","Ellernreihe (Mitte)",,"53.608130000000","10.081486000000",0,,0,""
"de:02000:63013:2:630188","","Ellernreihe (Mitte)",,"53.608472000000","10.079440000000",0,,0,""
"de:02000:63064::630191","","Rönkkoppel",,"53.613717000000","10.107211000000",0,,0,""
"de:02000:63063::630192","","Swebenhöhe",,"53.609895000000","10.108516000000",0,,0,""
"de:02000:63037::630194","","Neusurenland",,"53.616194000000","10.112399000000",0,,0,""
"de:02000:63065::630200","","Bullenkoppel",,"53.595293000000","10.091406000000",0,,0,""
"de:02000:63065::630201","","Bullenkoppel",,"53.595256000000","10.091496000000",0,,0,""
"de:01062:64011::640004","","Barsbüttel, Zum Dicken Busch",,"53.569219000000","10.153975000000",0,,0,""
"de:01062:64003::640008","","Barsbüttel, Rathaus",,"53.568937000000","10.169137000000",0,,0,""
"de:01062:64004::640009","","Barsbüttel, Bergredder",,"53.568813000000","10.175413000000",0,,0,""
"de:01062:64005::640010","","Barsbüttel, Am Bondenholz",,"53.568922000000","10.180775000000",0,,0,""
"de:01062:64006::640012","","Barsbüttel, Von-Bronsart-Straße",,"53.568427000000","10.187177000000",0,,0,""
"de:01062:64007::640013","","Willinghusen, Feldweg",,"53.565904000000","10.197823000000",0,,0,""
"de:01062:64008::640014","","Willinghusen, Alte Dorfstraße",,"53.561624000000","10.202546000000",0,,0,""
"de:01062:64009::640016","","Willinghusen, Lohe",,"53.559706000000","10.203895000000",0,,0,""
"de:01062:64012::640028","","Willinghusen, Zum Tunnel",,"53.562308000000","10.205101000000",0,,0,""
"de:01062:64008::640029","","Willinghusen, Alte Dorfstraße",,"53.561563000000","10.201458000000",0,,0,""
"de:01062:64007::640030","","Willinghusen, Feldweg",,"53.566372000000","10.197700000000",0,,0,""
"de:01062:64006::640031","","Barsbüttel, Von-Bronsart-Straße",,"53.568609000000","10.186955000000",0,,0,""
"de:01062:64005::640033","","Barsbüttel, Am Bondenholz",,"53.569005000000","10.179645000000",0,,0,""
"de:01062:64004::640034","","Barsbüttel, Bergredder",,"53.568919000000","10.175597000000",0,,0,""
"de:01062:64003::640035","","Barsbüttel, Rathaus",,"53.569109000000","10.168085000000",0,,0,""
"de:02000:64015::640044","","Hoffmannstieg",,"53.603160000000","10.180446000000",0,,0,""
"de:02000:64016::640045","","Prehnsweg",,"53.604576000000","10.175364000000",0,,0,""
"de:02000:64017::640046","","Sieker Landstraße",,"53.605613000000","10.168549000000",0,,0,""
"de:02000:64018::640047","","Schweriner Straße",,"53.605055000000","10.162158000000",0,,0,""
"de:02000:64018::640052","","Schweriner Straße",,"53.605010000000","10.162232000000",0,,0,""
"de:02000:64017::640053","","Sieker Landstraße",,"53.605692000000","10.166889000000",0,,0,""
"de:02000:64016::640054","","Prehnsweg",,"53.604616000000","10.173975000000",0,,0,""
"de:02000:64015::640055","","Hoffmannstieg",,"53.603059000000","10.180610000000",0,,0,""
"de:02000:64014::640058","","Großlohe",,"53.602107000000","10.181550000000",0,,0,""
"de:02000:64014::640059","","Großlohe",,"53.602687000000","10.181974000000",0,,0,""
"de:01062:64020::640062","","Barsbüttel, Kielende",,"53.570708000000","10.187361000000",0,,0,""
"de:01062:64020::640063","","Barsbüttel, Kielende",,"53.570287000000","10.187198000000",0,,0,""
"de:02000:64028::640067","","Kinderkrankenhaus Wilhelmstift",,"53.589456000000","10.162198000000",0,,0,""
"de:02000:64025::640071","","Am Hegen",,"53.589087000000","10.180567000000",0,,0,""
"de:02000:64023::640072","","Sorenkoppel",,"53.591001000000","10.185121000000",0,,0,""
"de:02000:64025::640077","","Am Hegen",,"53.589124000000","10.180478000000",0,,0,""
"de:02000:64026::640078","","Geesthachter Weg",,"53.588544000000","10.170962000000",0,,0,""
"de:02000:64027::640081","","Kielkoppelstraße",,"53.590143000000","10.166415000000",0,,0,""
"de:02000:62033::640083","","Wilhelm-Grimm-Straße",,"53.600028000000","10.156129000000",0,,0,""
"de:02000:64029::640085","","Schimmelreiterweg",,"53.590570000000","10.178721000000",0,,0,""
"de:02000:64030::640087","","Waldwinkel",,"53.592128000000","10.173825000000",0,,0,""
"de:02000:64031::640089","","Am Ohlendorffturm",,"53.595291000000","10.168264000000",0,,0,""
"de:02000:64032::640090","","Theodor-Storm-Straße",,"53.593208000000","10.160761000000",0,,0,""
"de:02000:64032::640091","","Theodor-Storm-Straße",,"53.593243000000","10.160852000000",0,,0,""
"de:02000:64033::640092","","Amtsstraße",,"53.596053000000","10.164796000000",0,,0,""
"de:02000:64033::640093","","Amtsstraße",,"53.596235000000","10.160889000000",0,,0,""
"de:02000:64033::640096","","Amtsstraße",,"53.597038000000","10.163343000000",0,,0,""
"de:02000:64034::640097","","Buchwaldstraße",,"53.598957000000","10.162806000000",0,,0,""
"de:02000:64034::640098","","Buchwaldstraße",,"53.599669000000","10.162614000000",0,,0,""
"de:02000:64035::640099","","Altes Rathaus Rahlstedt",,"53.602274000000","10.158955000000",0,,0,""
"de:02000:64035::640100","","Altes Rathaus Rahlstedt",,"53.602172000000","10.159269000000",0,,0,""
"de:02000:64026::640104","","Geesthachter Weg",,"53.588491000000","10.170840000000",0,,0,""
"de:02000:64019::640107","","Seniorensitz Am Hegen",,"53.592860000000","10.171595000000",0,,0,""
"de:02000:64027::640111","","Kielkoppelstraße",,"53.589434000000","10.168133000000",0,,0,""
"de:02000:64036::640119","","Heinrich-Schulz-Weg",,"53.598771000000","10.179976000000",0,,0,""
"de:02000:65001::650001","","U Meiendorfer Weg",,"53.639061000000","10.157045000000",0,,0,""
"de:02000:65002::650002","","Bargkoppelweg",,"53.626080000000","10.161376000000",0,,0,""
"de:02000:63048::650005","","Kohövedstraße",,"53.608414000000","10.144679000000",0,,0,""
"de:02000:63049::650006","","Boltenhagener Straße",,"53.600121000000","10.137989000000",0,,0,""
"de:02000:65037::650007","","U Berne (Kriegkamp)",,"53.625979000000","10.140136000000",0,,1,""
"de:02000:65019::650008","","Rauchschwalbenweg",,"53.620823000000","10.142732000000",0,,0,""
"de:02000:65019::650009","","Rauchschwalbenweg",,"53.621348000000","10.142369000000",0,,0,""
"de:02000:65020::650010","","Greifenberger Straße (Ost)",,"53.618631000000","10.144638000000",0,,0,""
"de:02000:65020::650011","","Greifenberger Straße (Ost)",,"53.618474000000","10.144996000000",0,,0,""
"de:02000:65021::650012","","Berner Straße",,"53.619078000000","10.149547000000",0,,0,""
"de:02000:65021::650013","","Berner Straße",,"53.618922000000","10.148938000000",0,,0,""
"de:02000:65022::650014","","Redderblock",,"53.616203000000","10.152088000000",0,,0,""
"de:02000:65022::650015","","Redderblock",,"53.615906000000","10.152556000000",0,,0,""
"de:02000:65006::650017","","Bargteheider Straße (Nord)",,"53.614041000000","10.155666000000",0,,0,""
"de:02000:65023::650020","","Sandkule",,"53.607385000000","10.149728000000",0,,0,""
"de:02000:65004::650024","","Haffkruger Weg",,"53.609107000000","10.150107000000",0,,0,""
"de:02000:65025::650025","","Hohenkamp",,"53.605993000000","10.146018000000",0,,0,""
"de:02000:65026::650028","","U Berne (Berner Heerweg)",,"53.626837000000","10.138723000000",0,,0,""
"de:02000:65026::650029","","U Berne (Berner Heerweg)",,"53.626952000000","10.138862000000",0,,0,""
"de:02000:65003::650033","","Bf. Rahlstedt (Doberaner Weg)",,"53.604236000000","10.152996000000",0,,1,""
"de:02000:65003::650034","","Bf. Rahlstedt (Doberaner Weg)",,"53.604671000000","10.153582000000",0,,1,""
"de:02000:65006::650036","","Bargteheider Straße (Nord)",,"53.613696000000","10.155973000000",0,,0,""
"de:02000:65009::650038","","Gerstenwiese",,"53.618370000000","10.160484000000",0,,0,""
"de:02000:65009::650039","","Gerstenwiese",,"53.618460000000","10.160441000000",0,,0,""
"de:02000:65010::650040","","Saseler Straße",,"53.622196000000","10.165289000000",0,,0,""
"de:02000:65010::650041","","Saseler Straße",,"53.623036000000","10.166643000000",0,,0,""
"de:02000:65011::650044","","Wildschwanbrook",,"53.626778000000","10.169059000000",0,,0,""
"de:02000:65011::650045","","Wildschwanbrook",,"53.626812000000","10.169271000000",0,,0,""
"de:02000:65012::650046","","Wildschwanbrook (Mitte)",,"53.629173000000","10.175912000000",0,,0,""
"de:02000:65012::650047","","Wildschwanbrook (Mitte)",,"53.628803000000","10.175101000000",0,,0,""
"de:02000:65013::650048","","Hellmesbergerweg",,"53.630249000000","10.178814000000",0,,0,""
"de:02000:65013::650049","","Hellmesbergerweg",,"53.630519000000","10.179668000000",0,,0,""
"de:02000:65014::650050","","Skaldenweg",,"53.633005000000","10.179965000000",0,,0,""
"de:02000:65014::650051","","Skaldenweg",,"53.633976000000","10.178994000000",0,,0,""
"de:02000:65027::650054","","Offenbachweg",,"53.632863000000","10.174337000000",0,,0,""
"de:02000:65027::650055","","Offenbachweg",,"53.632545000000","10.173753000000",0,,0,""
"de:02000:65031::650056","","Lapplandring",,"53.630560000000","10.169103000000",0,,0,""
"de:02000:65031::650058","","Lapplandring",,"53.630386000000","10.168569000000",0,,0,""
"de:02000:65016:1:650060","","Spitzbergenweg",,"53.628855000000","10.166084000000",0,,0,""
"de:02000:65016:2:650062","","Spitzbergenweg",,"53.628544000000","10.164860000000",0,,0,""
"de:02000:65017::650063","","Von-Suppé-Straße",,"53.632985000000","10.164619000000",0,,0,""
"de:02000:65017::650064","","Von-Suppé-Straße",,"53.632713000000","10.164884000000",0,,0,""
"de:02000:65018::650065","","Ringstraße",,"53.636448000000","10.162432000000",0,,0,""
"de:02000:65018::650066","","Ringstraße",,"53.635669000000","10.163030000000",0,,0,""
"de:02000:65015::650067","","Künnekestraße",,"53.635888000000","10.178337000000",0,,0,""
"de:02000:65015::650068","","Künnekestraße",,"53.635633000000","10.178632000000",0,,0,""
"de:02000:65008::650071","","Eichberg",,"53.612990000000","10.164824000000",0,,0,""
"de:02000:65008::650072","","Eichberg",,"53.613174000000","10.165328000000",0,,0,""
"de:02000:65005::650074","","Bf. Rahlstedt (Amtsstraße)",,"53.603763000000","10.153392000000",0,,1,"Ankunft"
"de:02000:65005::650075","","Bf. Rahlstedt (Amtsstraße)",,"53.603543000000","10.153914000000",0,,1,"A"
"de:02000:65005::650076","","Bf. Rahlstedt (Amtsstraße)",,"53.603672000000","10.153969000000",0,,1,"C"
"de:02000:65000::650080","","Liliencronpark",,"53.600963000000","10.153239000000",0,,0,""
"de:02000:65000::650081","","Liliencronpark",,"53.600576000000","10.152382000000",0,,0,""
"de:02000:65026::650082","","U Berne (Berner Heerweg)",,"53.626536000000","10.138262000000",0,,0,""
"de:02000:65028::650093","","Eggerskamp",,"53.610681000000","10.156526000000",0,,0,""
